trip_id,stop_id,route_id,gtfs_stop_sequence,checkpoint_id,block_id,service_id,route_pattern_id,route_pattern_typicality,direction_id,direction,direction_destination,stop_name,plan_stop_count,plan_start_time,plan_travel_time_seconds,plan_route_direction_headway_seconds,plan_direction_destination_headway_seconds,plan_start_dt,plan_stop_departure_dt,service_date
63070693,334,22,1,ashmt,C22-146,BUS32024-hbc34ns1-Weekday-02,22-_-1,1,1,Inbound,Ruggles Station,Ashmont,29,55800,,540,480,2024-08-01T15:30:00.000000,2024-08-01T15:30:00.000000,2024-08-01
63070693,367,22,2,,C22-146,BUS32024-hbc34ns1-Weekday-02,22-_-1,1,1,Inbound,Ruggles Station,Talbot Ave @ Dorchester Ave,29,55800,60,540,420,2024-08-01T15:30:00.000000,2024-08-01T15:31:00.000000,2024-08-01
63070693,369,22,3,,C22-146,BUS32024-hbc34ns1-Weekday-02,22-_-1,1,1,Inbound,Ruggles Station,Talbot Ave @ Welles Ave,29,55800,60,540,420,2024-08-01T15:30:00.000000,2024-08-01T15:32:00.000000,2024-08-01
63070693,371,22,4,codmn,C22-146,BUS32024-hbc34ns1-Weekday-02,22-_-1,1,1,Inbound,Ruggles Station,Talbot Ave @ Centre St,29,55800,60,540,360,2024-08-01T15:30:00.000000,2024-08-01T15:33:00.000000,2024-08-01
63070693,372,22,5,,C22-146,BUS32024-hbc34ns1-Weekday-02,22-_-1,1,1,Inbound,Ruggles Station,Talbot Ave @ Southern Ave,29,55800,60,540,540,2024-08-01T15:30:00.000000,2024-08-01T15:34:00.000000,2024-08-01
63070693,373,22,6,,C22-146,BUS32024-hbc34ns1-Weekday-02,22-_-1,1,1,Inbound,Ruggles Station,Talbot Ave @ Spencer St,29,55800,60,540,540,2024-08-01T15:30:00.000000,2024-08-01T15:35:00.000000,2024-08-01
63070693,374,22,7,,C22-146,BUS32024-hbc34ns1-Weekday-02,22-_-1,1,1,Inbound,Ruggles Station,Talbot Ave @ Talbot Station,29,55800,60,540,540,2024-08-01T15:30:00.000000,2024-08-01T15:36:00.000000,2024-08-01
63070693,375,22,8,,C22-146,BUS32024-hbc34ns1-Weekday-02,22-_-1,1,1,Inbound,Ruggles Station,Talbot Ave @ Bernard St,29,55800,60,540,540,2024-08-01T15:30:00.000000,2024-08-01T15:37:00.000000,2024-08-01
63070693,376,22,9,,C22-146,BUS32024-hbc34ns1-Weekday-02,22-_-1,1,1,Inbound,Ruggles Station,Talbot Ave @ Kerwin St,29,55800,60,540,540,2024-08-01T15:30:00.000000,2024-08-01T15:38:00.000000,2024-08-01
63070693,378,22,10,bltal,C22-146,BUS32024-hbc34ns1-Weekday-02,22-_-1,1,1,Inbound,Ruggles Station,Talbot Ave @ Nightingale St,29,55800,60,540,540,2024-08-01T15:30:00.000000,2024-08-01T15:39:00.000000,2024-08-01
63070693,1737,22,11,,C22-146,BUS32024-hbc34ns1-Weekday-02,22-_-1,1,1,Inbound,Ruggles Station,Blue Hill Ave @ Harvard St,29,55800,60,540,360,2024-08-01T15:30:00.000000,2024-08-01T15:40:00.000000,2024-08-01
63070693,381,22,12,,C22-146,BUS32024-hbc34ns1-Weekday-02,22-_-1,1,1,Inbound,Ruggles Station,Blue Hill Ave @ Wales St,29,55800,60,540,300,2024-08-01T15:30:00.000000,2024-08-01T15:41:00.000000,2024-08-01
63070693,382,22,13,,C22-146,BUS32024-hbc34ns1-Weekday-02,22-_-1,1,1,Inbound,Ruggles Station,Blue Hill Ave @ Charlotte St,29,55800,60,540,300,2024-08-01T15:30:00.000000,2024-08-01T15:42:00.000000,2024-08-01
63070693,383,22,14,frnpk,C22-146,BUS32024-hbc34ns1-Weekday-02,22-_-1,1,1,Inbound,Ruggles Station,Blue Hill Ave @ Ellington St,29,55800,60,540,240,2024-08-01T15:30:00.000000,2024-08-01T15:43:00.000000,2024-08-01
63070693,9448,22,15,,C22-146,BUS32024-hbc34ns1-Weekday-02,22-_-1,1,1,Inbound,Ruggles Station,Seaver St @ Blue Hill Ave,29,55800,60,540,540,2024-08-01T15:30:00.000000,2024-08-01T15:44:00.000000,2024-08-01
63070693,1739,22,16,,C22-146,BUS32024-hbc34ns1-Weekday-02,22-_-1,1,1,Inbound,Ruggles Station,Seaver St @ Maple St,29,55800,60,540,540,2024-08-01T15:30:00.000000,2024-08-01T15:45:00.000000,2024-08-01
63070693,1740,22,17,,C22-146,BUS32024-hbc34ns1-Weekday-02,22-_-1,1,1,Inbound,Ruggles Station,Seaver St @ Elm Hill Ave,29,55800,60,540,540,2024-08-01T15:30:00.000000,2024-08-01T15:46:00.000000,2024-08-01
63070693,1741,22,18,svrhm,C22-146,BUS32024-hbc34ns1-Weekday-02,22-_-1,1,1,Inbound,Ruggles Station,Seaver St @ Humboldt Ave,29,55800,60,540,540,2024-08-01T15:30:00.000000,2024-08-01T15:47:00.000000,2024-08-01
63070693,1742,22,19,,C22-146,BUS32024-hbc34ns1-Weekday-02,22-_-1,1,1,Inbound,Ruggles Station,Seaver St @ Harold St,29,55800,60,540,540,2024-08-01T15:30:00.000000,2024-08-01T15:48:00.000000,2024-08-01
63070693,1743,22,20,,C22-146,BUS32024-hbc34ns1-Weekday-02,22-_-1,1,1,Inbound,Ruggles Station,Columbus Ave @ Walnut Ave,29,55800,60,540,540,2024-08-01T15:30:00.000000,2024-08-01T15:49:00.000000,2024-08-01
63070693,1188,22,21,egles,C22-146,BUS32024-hbc34ns1-Weekday-02,22-_-1,1,1,Inbound,Ruggles Station,Columbus Ave opp Weld Ave - Egleston Sq,29,55800,60,540,540,2024-08-01T15:30:00.000000,2024-08-01T15:50:00.000000,2024-08-01
63070693,1215,22,22,,C22-146,BUS32024-hbc34ns1-Weekday-02,22-_-1,1,1,Inbound,Ruggles Station,Columbus Ave @ Bray St,29,55800,60,540,540,2024-08-01T15:30:00.000000,2024-08-01T15:51:00.000000,2024-08-01
63070693,1216,22,23,,C22-146,BUS32024-hbc34ns1-Weekday-02,22-_-1,1,1,Inbound,Ruggles Station,Columbus Ave @ Dimock St,29,55800,60,540,540,2024-08-01T15:30:00.000000,2024-08-01T15:52:00.000000,2024-08-01
63070693,11531,22,24,jasst,C22-146,BUS32024-hbc34ns1-Weekday-02,22-_-1,1,1,Inbound,Ruggles Station,Jackson Square,29,55800,240,540,540,2024-08-01T15:30:00.000000,2024-08-01T15:56:00.000000,2024-08-01
63070693,1219,22,25,,C22-146,BUS32024-hbc34ns1-Weekday-02,22-_-1,1,1,Inbound,Ruggles Station,Columbus Ave @ Centre St,29,55800,120,540,540,2024-08-01T15:30:00.000000,2024-08-01T15:58:00.000000,2024-08-01
63070693,1221,22,26,,C22-146,BUS32024-hbc34ns1-Weekday-02,22-_-1,1,1,Inbound,Ruggles Station,Columbus Ave @ Cedar St,29,55800,60,540,540,2024-08-01T15:30:00.000000,2024-08-01T15:59:00.000000,2024-08-01
63070693,1222,22,27,roxbs,C22-146,BUS32024-hbc34ns1-Weekday-02,22-_-1,1,1,Inbound,Ruggles Station,Columbus Ave @ Malcolm X Blvd,29,55800,120,540,540,2024-08-01T15:30:00.000000,2024-08-01T16:01:00.000000,2024-08-01
63070693,1224,22,28,,C22-146,BUS32024-hbc34ns1-Weekday-02,22-_-1,1,1,Inbound,Ruggles Station,Tremont St opp Prentiss St,29,55800,180,540,60,2024-08-01T15:30:00.000000,2024-08-01T16:04:00.000000,2024-08-01
63070693,17861,22,29,rugg,C22-146,BUS32024-hbc34ns1-Weekday-02,22-_-1,1,1,Inbound,Ruggles Station,Ruggles,29,55800,360,540,180,2024-08-01T15:30:00.000000,2024-08-01T16:10:00.000000,2024-08-01
63070975,33,7,1,ctypt,C07-23,BUS32024-hbc34ns1-Weekday-02,7-1-1,1,1,Inbound,Otis Street & Summer Street,City Point Bus Terminal,14,26880,,480,480,2024-08-01T07:28:00.000000,2024-08-01T07:28:00.000000,2024-08-01
63070975,10033,7,2,,C07-23,BUS32024-hbc34ns1-Weekday-02,7-1-1,1,1,Inbound,Otis Street & Summer Street,E 1st St @ O St,14,26880,60,480,480,2024-08-01T07:28:00.000000,2024-08-01T07:29:00.000000,2024-08-01
63070975,34,7,3,,C07-23,BUS32024-hbc34ns1-Weekday-02,7-1-1,1,1,Inbound,Otis Street & Summer Street,P St @ E 2nd St,14,26880,60,480,480,2024-08-01T07:28:00.000000,2024-08-01T07:30:00.000000,2024-08-01
63070975,35,7,4,,C07-23,BUS32024-hbc34ns1-Weekday-02,7-1-1,1,1,Inbound,Otis Street & Summer Street,P St @ E Broadway,14,26880,0,480,480,2024-08-01T07:28:00.000000,2024-08-01T07:30:00.000000,2024-08-01
63070975,895,7,5,,C07-23,BUS32024-hbc34ns1-Weekday-02,7-1-1,1,1,Inbound,Otis Street & Summer Street,E Broadway @ N St,14,26880,120,480,480,2024-08-01T07:28:00.000000,2024-08-01T07:32:00.000000,2024-08-01
63070975,886,7,6,lbrwy,C07-23,BUS32024-hbc34ns1-Weekday-02,7-1-1,1,1,Inbound,Otis Street & Summer Street,L St @ Broadway,14,26880,60,480,480,2024-08-01T07:28:00.000000,2024-08-01T07:33:00.000000,2024-08-01
63070975,884,7,7,,C07-23,BUS32024-hbc34ns1-Weekday-02,7-1-1,1,1,Inbound,Otis Street & Summer Street,Summer St @ E 1st St,14,26880,60,480,480,2024-08-01T07:28:00.000000,2024-08-01T07:34:00.000000,2024-08-01
63070975,210,7,8,,C07-23,BUS32024-hbc34ns1-Weekday-02,7-1-1,1,1,Inbound,Otis Street & Summer Street,Summer St @ Drydock Ave,14,26880,120,480,480,2024-08-01T07:28:00.000000,2024-08-01T07:36:00.000000,2024-08-01
63070975,212,7,9,,C07-23,BUS32024-hbc34ns1-Weekday-02,7-1-1,1,1,Inbound,Otis Street & Summer Street,Summer St @ D St,14,26880,60,480,480,2024-08-01T07:28:00.000000,2024-08-01T07:37:00.000000,2024-08-01
63070975,890,7,10,bcec,C07-23,BUS32024-hbc34ns1-Weekday-02,7-1-1,1,1,Inbound,Otis Street & Summer Street,Summer St @ WTC Ave,14,26880,60,480,480,2024-08-01T07:28:00.000000,2024-08-01T07:38:00.000000,2024-08-01
63070975,891,7,11,,C07-23,BUS32024-hbc34ns1-Weekday-02,7-1-1,1,1,Inbound,Otis Street & Summer Street,Summer St opp Melcher St,14,26880,120,480,480,2024-08-01T07:28:00.000000,2024-08-01T07:40:00.000000,2024-08-01
63070975,892,7,12,sosta,C07-23,BUS32024-hbc34ns1-Weekday-02,7-1-1,1,1,Inbound,Otis Street & Summer Street,Summer St @ Atlantic Ave,14,26880,120,480,480,2024-08-01T07:28:00.000000,2024-08-01T07:42:00.000000,2024-08-01
63070975,6535,7,13,,C07-23,BUS32024-hbc34ns1-Weekday-02,7-1-1,1,1,Inbound,Otis Street & Summer Street,Federal St @ Matthews St,14,26880,240,480,480,2024-08-01T07:28:00.000000,2024-08-01T07:46:00.000000,2024-08-01
63070975,16535,7,14,otsum,C07-23,BUS32024-hbc34ns1-Weekday-02,7-1-1,1,1,Inbound,Otis Street & Summer Street,Otis St @ Summer St,14,26880,180,480,480,2024-08-01T07:28:00.000000,2024-08-01T07:49:00.000000,2024-08-01
63071767,1475,15,1,kane,C15-106,BUS32024-hbc34ns1-Weekday-02,15-_-1,1,1,Inbound,Ruggles Station,Hancock St @ Bowdoin St,21,57000,,600,600,2024-08-01T15:50:00.000000,2024-08-01T15:50:00.000000,2024-08-01
63071767,1478,15,2,,C15-106,BUS32024-hbc34ns1-Weekday-02,15-_-1,1,1,Inbound,Ruggles Station,Hancock St @ Rowell St,21,57000,60,600,600,2024-08-01T15:50:00.000000,2024-08-01T15:51:00.000000,2024-08-01
63071767,1479,15,3,,C15-106,BUS32024-hbc34ns1-Weekday-02,15-_-1,1,1,Inbound,Ruggles Station,Hancock St @ Jerome St,21,57000,0,600,600,2024-08-01T15:50:00.000000,2024-08-01T15:51:00.000000,2024-08-01
63071767,1480,15,4,upham,C15-106,BUS32024-hbc34ns1-Weekday-02,15-_-1,1,1,Inbound,Ruggles Station,Columbia Rd @ Hancock St,21,57000,60,600,600,2024-08-01T15:50:00.000000,2024-08-01T15:52:00.000000,2024-08-01
63071767,1481,15,5,,C15-106,BUS32024-hbc34ns1-Weekday-02,15-_-1,1,1,Inbound,Ruggles Station,Dudley St @ Belden St,21,57000,60,600,600,2024-08-01T15:50:00.000000,2024-08-01T15:53:00.000000,2024-08-01
63071767,11482,15,6,,C15-106,BUS32024-hbc34ns1-Weekday-02,15-_-1,1,1,Inbound,Ruggles Station,Dudley St @ Uphams Corner Station,21,57000,60,600,600,2024-08-01T15:50:00.000000,2024-08-01T15:54:00.000000,2024-08-01
63071767,14831,15,7,,C15-106,BUS32024-hbc34ns1-Weekday-02,15-_-1,1,1,Inbound,Ruggles Station,Dudley St opp Howard Ave,21,57000,60,600,600,2024-08-01T15:50:00.000000,2024-08-01T15:55:00.000000,2024-08-01
63071767,1484,15,8,,C15-106,BUS32024-hbc34ns1-Weekday-02,15-_-1,1,1,Inbound,Ruggles Station,Dudley St @ E Cottage St,21,57000,60,600,600,2024-08-01T15:50:00.000000,2024-08-01T15:56:00.000000,2024-08-01
63071767,1485,15,9,,C15-106,BUS32024-hbc34ns1-Weekday-02,15-_-1,1,1,Inbound,Ruggles Station,Dudley St @ Langdon St,21,57000,60,600,600,2024-08-01T15:50:00.000000,2024-08-01T15:57:00.000000,2024-08-01
63071767,1486,15,10,bhdud,C15-106,BUS32024-hbc34ns1-Weekday-02,15-_-1,1,1,Inbound,Ruggles Station,Dudley St @ Magazine St,21,57000,60,600,600,2024-08-01T15:50:00.000000,2024-08-01T15:58:00.000000,2024-08-01
63071767,1487,15,11,,C15-106,BUS32024-hbc34ns1-Weekday-02,15-_-1,1,1,Inbound,Ruggles Station,Dudley St @ Hampden St,21,57000,60,600,600,2024-08-01T15:50:00.000000,2024-08-01T15:59:00.000000,2024-08-01
63071767,1488,15,12,,C15-106,BUS32024-hbc34ns1-Weekday-02,15-_-1,1,1,Inbound,Ruggles Station,Dudley St @ Adams St,21,57000,120,600,600,2024-08-01T15:50:00.000000,2024-08-01T16:01:00.000000,2024-08-01
63071767,1489,15,13,,C15-106,BUS32024-hbc34ns1-Weekday-02,15-_-1,1,1,Inbound,Ruggles Station,Dudley St @ Dearborn St,21,57000,120,660,660,2024-08-01T15:50:00.000000,2024-08-01T16:03:00.000000,2024-08-01
63071767,1491,15,14,,C15-106,BUS32024-hbc34ns1-Weekday-02,15-_-1,1,1,Inbound,Ruggles Station,Dudley St @ Harrison Ave,21,57000,180,720,0,2024-08-01T15:50:00.000000,2024-08-01T16:06:00.000000,2024-08-01
63071767,64000,15,15,nubn,C15-106,BUS32024-hbc34ns1-Weekday-02,15-_-1,1,1,Inbound,Ruggles Station,Nubian,21,57000,60,720,0,2024-08-01T15:50:00.000000,2024-08-01T16:07:00.000000,2024-08-01
63071767,1148,15,16,,C15-106,BUS32024-hbc34ns1-Weekday-02,15-_-1,1,1,Inbound,Ruggles Station,Malcolm X Blvd @ Shawmut Ave,21,57000,120,720,60,2024-08-01T15:50:00.000000,2024-08-01T16:09:00.000000,2024-08-01
63071767,11149,15,17,,C15-106,BUS32024-hbc34ns1-Weekday-02,15-_-1,1,1,Inbound,Ruggles Station,Malcolm X Blvd @ O'Bryant HS,21,57000,60,720,120,2024-08-01T15:50:00.000000,2024-08-01T16:10:00.000000,2024-08-01
63071767,11148,15,18,,C15-106,BUS32024-hbc34ns1-Weekday-02,15-_-1,1,1,Inbound,Ruggles Station,Malcolm X Blvd @ Madison Park HS,21,57000,60,720,120,2024-08-01T15:50:00.000000,2024-08-01T16:11:00.000000,2024-08-01
63071767,21148,15,19,roxbs,C15-106,BUS32024-hbc34ns1-Weekday-02,15-_-1,1,1,Inbound,Ruggles Station,Malcolm X Blvd @ Tremont St,21,57000,60,720,180,2024-08-01T15:50:00.000000,2024-08-01T16:12:00.000000,2024-08-01
63071767,1224,15,20,,C15-106,BUS32024-hbc34ns1-Weekday-02,15-_-1,1,1,Inbound,Ruggles Station,Tremont St opp Prentiss St,21,57000,120,720,120,2024-08-01T15:50:00.000000,2024-08-01T16:14:00.000000,2024-08-01
63071767,17861,15,21,rugg,C15-106,BUS32024-hbc34ns1-Weekday-02,15-_-1,1,1,Inbound,Ruggles Station,Ruggles,21,57000,300,720,0,2024-08-01T15:50:00.000000,2024-08-01T16:19:00.000000,2024-08-01
63072828,6551,504,1,fedfr,C18-134,BUS32024-hbc34ns1-Weekday-02,504-2-0,1,0,Outbound,Watertown Yard,Federal St @ Franklin St,12,29220,,960,960,2024-08-01T08:07:00.000000,2024-08-01T08:07:00.000000,2024-08-01
63072828,16535,504,2,,C18-134,BUS32024-hbc34ns1-Weekday-02,504-2-0,1,0,Outbound,Watertown Yard,Otis St @ Summer St,12,29220,120,960,960,2024-08-01T08:07:00.000000,2024-08-01T08:09:00.000000,2024-08-01
63072828,6555,504,3,kneel,C18-134,BUS32024-hbc34ns1-Weekday-02,504-2-0,1,0,Outbound,Watertown Yard,Chinatown Gate,12,29220,180,960,960,2024-08-01T08:07:00.000000,2024-08-01T08:12:00.000000,2024-08-01
63072828,9983,504,4,,C18-134,BUS32024-hbc34ns1-Weekday-02,504-2-0,1,0,Outbound,Watertown Yard,Stuart St @ Charles St S,12,29220,180,960,960,2024-08-01T08:07:00.000000,2024-08-01T08:15:00.000000,2024-08-01
63072828,177,504,5,,C18-134,BUS32024-hbc34ns1-Weekday-02,504-2-0,1,0,Outbound,Watertown Yard,Saint James Ave @ Arlington St,12,29220,120,960,960,2024-08-01T08:07:00.000000,2024-08-01T08:17:00.000000,2024-08-01
63072828,173,504,6,,C18-134,BUS32024-hbc34ns1-Weekday-02,504-2-0,1,0,Outbound,Watertown Yard,Saint James Ave @ Berkeley St,12,29220,120,960,960,2024-08-01T08:07:00.000000,2024-08-01T08:19:00.000000,2024-08-01
63072828,178,504,7,stjim,C18-134,BUS32024-hbc34ns1-Weekday-02,504-2-0,1,0,Outbound,Watertown Yard,Saint James Ave @ Dartmouth St,12,29220,60,960,960,2024-08-01T08:07:00.000000,2024-08-01T08:20:00.000000,2024-08-01
63072828,903,504,8,nwcor,C18-134,BUS32024-hbc34ns1-Weekday-02,504-2-0,1,0,Outbound,Watertown Yard,Washington St @ Bacon St,12,29220,540,960,960,2024-08-01T08:07:00.000000,2024-08-01T08:29:00.000000,2024-08-01
63072828,19031,504,9,,C18-134,BUS32024-hbc34ns1-Weekday-02,504-2-0,1,0,Outbound,Watertown Yard,400 Centre St - West,12,29220,180,960,960,2024-08-01T08:07:00.000000,2024-08-01T08:32:00.000000,2024-08-01
63072828,988,504,10,,C18-134,BUS32024-hbc34ns1-Weekday-02,504-2-0,1,0,Outbound,Watertown Yard,Centre St @ Jefferson St,12,29220,180,960,480,2024-08-01T08:07:00.000000,2024-08-01T08:35:00.000000,2024-08-01
63072828,989,504,11,,C18-134,BUS32024-hbc34ns1-Weekday-02,504-2-0,1,0,Outbound,Watertown Yard,Galen St @ Maple St,12,29220,60,960,420,2024-08-01T08:07:00.000000,2024-08-01T08:36:00.000000,2024-08-01
63072828,999,504,12,wtryd,C18-134,BUS32024-hbc34ns1-Weekday-02,504-2-0,1,0,Outbound,Watertown Yard,Galen St @ Water St,12,29220,180,960,420,2024-08-01T08:07:00.000000,2024-08-01T08:39:00.000000,2024-08-01
63075088,64000,66,1,nubn,A66-325,BUS32024-hba34ns1-Weekday-02,66-6-0,1,0,Outbound,Harvard Square,Nubian,33,20700,,720,720,2024-08-01T05:45:00.000000,2024-08-01T05:45:00.000000,2024-08-01
63075088,1148,66,2,,A66-325,BUS32024-hba34ns1-Weekday-02,66-6-0,1,0,Outbound,Harvard Square,Malcolm X Blvd @ Shawmut Ave,33,20700,60,720,720,2024-08-01T05:45:00.000000,2024-08-01T05:46:00.000000,2024-08-01
63075088,11149,66,3,,A66-325,BUS32024-hba34ns1-Weekday-02,66-6-0,1,0,Outbound,Harvard Square,Malcolm X Blvd @ O'Bryant HS,33,20700,60,720,720,2024-08-01T05:45:00.000000,2024-08-01T05:47:00.000000,2024-08-01
63075088,11148,66,4,,A66-325,BUS32024-hba34ns1-Weekday-02,66-6-0,1,0,Outbound,Harvard Square,Malcolm X Blvd @ Madison Park HS,33,20700,60,720,720,2024-08-01T05:45:00.000000,2024-08-01T05:48:00.000000,2024-08-01
63075088,21148,66,5,,A66-325,BUS32024-hba34ns1-Weekday-02,66-6-0,1,0,Outbound,Harvard Square,Malcolm X Blvd @ Tremont St,33,20700,60,720,720,2024-08-01T05:45:00.000000,2024-08-01T05:49:00.000000,2024-08-01
63075088,1357,66,6,roxbs,A66-325,BUS32024-hba34ns1-Weekday-02,66-6-0,1,0,Outbound,Harvard Square,Tremont St opp Roxbury Crossing Sta,33,20700,60,720,720,2024-08-01T05:45:00.000000,2024-08-01T05:50:00.000000,2024-08-01
63075088,13590,66,7,,A66-325,BUS32024-hba34ns1-Weekday-02,66-6-0,1,0,Outbound,Harvard Square,Tremont St @ Tobin Community Center,33,20700,60,720,720,2024-08-01T05:45:00.000000,2024-08-01T05:51:00.000000,2024-08-01
63075088,1360,66,8,,A66-325,BUS32024-hba34ns1-Weekday-02,66-6-0,1,0,Outbound,Harvard Square,Tremont St @ Saint Alphonsus St,33,20700,0,720,720,2024-08-01T05:45:00.000000,2024-08-01T05:51:00.000000,2024-08-01
63075088,1362,66,9,brghm,A66-325,BUS32024-hba34ns1-Weekday-02,66-6-0,1,0,Outbound,Harvard Square,Tremont St @ Huntington Ave,33,20700,60,720,720,2024-08-01T05:45:00.000000,2024-08-01T05:52:00.000000,2024-08-01
63075088,1363,66,10,,A66-325,BUS32024-hba34ns1-Weekday-02,66-6-0,1,0,Outbound,Harvard Square,Huntington Ave @ Fenwood Rd,33,20700,60,720,720,2024-08-01T05:45:00.000000,2024-08-01T05:53:00.000000,2024-08-01
63075088,1365,66,11,,A66-325,BUS32024-hba34ns1-Weekday-02,66-6-0,1,0,Outbound,Harvard Square,835 Huntington Ave opp Parker Hill Ave,33,20700,60,720,720,2024-08-01T05:45:00.000000,2024-08-01T05:54:00.000000,2024-08-01
63075088,1366,66,12,,A66-325,BUS32024-hba34ns1-Weekday-02,66-6-0,1,0,Outbound,Harvard Square,Huntington Ave @ Riverway,33,20700,120,720,720,2024-08-01T05:45:00.000000,2024-08-01T05:56:00.000000,2024-08-01
63075088,1526,66,13,brkvl,A66-325,BUS32024-hba34ns1-Weekday-02,66-6-0,1,0,Outbound,Harvard Square,Washington St @ Pearl St,33,20700,60,720,720,2024-08-01T05:45:00.000000,2024-08-01T05:57:00.000000,2024-08-01
63075088,1367,66,14,,A66-325,BUS32024-hba34ns1-Weekday-02,66-6-0,1,0,Outbound,Harvard Square,Harvard St @ Kent St,33,20700,60,720,720,2024-08-01T05:45:00.000000,2024-08-01T05:58:00.000000,2024-08-01
63075088,1369,66,15,,A66-325,BUS32024-hba34ns1-Weekday-02,66-6-0,1,0,Outbound,Harvard Square,Harvard St @ Aspinwall Ave,33,20700,0,720,720,2024-08-01T05:45:00.000000,2024-08-01T05:58:00.000000,2024-08-01
63075088,1371,66,16,,A66-325,BUS32024-hba34ns1-Weekday-02,66-6-0,1,0,Outbound,Harvard Square,Harvard St opp Vernon St,33,20700,60,720,720,2024-08-01T05:45:00.000000,2024-08-01T05:59:00.000000,2024-08-01
63075088,1372,66,17,cool,A66-325,BUS32024-hba34ns1-Weekday-02,66-6-0,1,0,Outbound,Harvard Square,Harvard St @ Beacon St,33,20700,60,720,720,2024-08-01T05:45:00.000000,2024-08-01T06:00:00.000000,2024-08-01
63075088,1373,66,18,,A66-325,BUS32024-hba34ns1-Weekday-02,66-6-0,1,0,Outbound,Harvard Square,Harvard St @ Stedman St,33,20700,60,720,720,2024-08-01T05:45:00.000000,2024-08-01T06:01:00.000000,2024-08-01
63075088,1375,66,19,,A66-325,BUS32024-hba34ns1-Weekday-02,66-6-0,1,0,Outbound,Harvard Square,Harvard St @ Coolidge St,33,20700,60,720,720,2024-08-01T05:45:00.000000,2024-08-01T06:02:00.000000,2024-08-01
63075088,1376,66,20,,A66-325,BUS32024-hba34ns1-Weekday-02,66-6-0,1,0,Outbound,Harvard Square,Harvard St opp Verndale St,33,20700,60,720,720,2024-08-01T05:45:00.000000,2024-08-01T06:03:00.000000,2024-08-01
63075088,1378,66,21,hvdcm,A66-325,BUS32024-hba34ns1-Weekday-02,66-6-0,1,0,Outbound,Harvard Square,Harvard Ave @ Commonwealth Ave,33,20700,60,720,720,2024-08-01T05:45:00.000000,2024-08-01T06:04:00.000000,2024-08-01
63075088,1379,66,22,,A66-325,BUS32024-hba34ns1-Weekday-02,66-6-0,1,0,Outbound,Harvard Square,Harvard Ave @ Brighton Ave,33,20700,60,720,720,2024-08-01T05:45:00.000000,2024-08-01T06:05:00.000000,2024-08-01
63075088,964,66,23,,A66-325,BUS32024-hba34ns1-Weekday-02,66-6-0,1,0,Outbound,Harvard Square,Brighton Ave opp Quint Ave,33,20700,60,780,780,2024-08-01T05:45:00.000000,2024-08-01T06:06:00.000000,2024-08-01
63075088,1111,66,24,union,A66-325,BUS32024-hba34ns1-Weekday-02,66-6-0,1,0,Outbound,Harvard Square,Cambridge St opp Hano St,33,20700,60,780,780,2024-08-01T05:45:00.000000,2024-08-01T06:07:00.000000,2024-08-01
63075088,1112,66,25,,A66-325,BUS32024-hba34ns1-Weekday-02,66-6-0,1,0,Outbound,Harvard Square,Cambridge St @ Harvard Ave,33,20700,60,780,780,2024-08-01T05:45:00.000000,2024-08-01T06:08:00.000000,2024-08-01
63075088,2558,66,26,,A66-325,BUS32024-hba34ns1-Weekday-02,66-6-0,1,0,Outbound,Harvard Square,N Harvard St @ Empire St,33,20700,180,840,840,2024-08-01T05:45:00.000000,2024-08-01T06:11:00.000000,2024-08-01
63075088,2559,66,27,,A66-325,BUS32024-hba34ns1-Weekday-02,66-6-0,1,0,Outbound,Harvard Square,N Harvard St @ Oxford St,33,20700,0,780,780,2024-08-01T05:45:00.000000,2024-08-01T06:11:00.000000,2024-08-01
63075088,2560,66,28,,A66-325,BUS32024-hba34ns1-Weekday-02,66-6-0,1,0,Outbound,Harvard Square,N Harvard St @ Kingsley St,33,20700,60,840,840,2024-08-01T05:45:00.000000,2024-08-01T06:12:00.000000,2024-08-01
63075088,2561,66,29,nhvws,A66-325,BUS32024-hba34ns1-Weekday-02,66-6-0,1,0,Outbound,Harvard Square,N Harvard St @ Western Ave,33,20700,60,840,840,2024-08-01T05:45:00.000000,2024-08-01T06:13:00.000000,2024-08-01
63075088,2564,66,30,,A66-325,BUS32024-hba34ns1-Weekday-02,66-6-0,1,0,Outbound,Harvard Square,N Harvard St opp Harvard Stadium Gate 2,33,20700,180,840,840,2024-08-01T05:45:00.000000,2024-08-01T06:16:00.000000,2024-08-01
63075088,25641,66,31,,A66-325,BUS32024-hba34ns1-Weekday-02,66-6-0,1,0,Outbound,Harvard Square,JFK St @ Eliot St,33,20700,120,840,840,2024-08-01T05:45:00.000000,2024-08-01T06:18:00.000000,2024-08-01
63075088,2168,66,32,,A66-325,BUS32024-hba34ns1-Weekday-02,66-6-0,1,0,Outbound,Harvard Square,Massachusetts Ave @ Johnston Gate,33,20700,180,840,840,2024-08-01T05:45:00.000000,2024-08-01T06:21:00.000000,2024-08-01
63075088,22549,66,33,harsq,A66-325,BUS32024-hba34ns1-Weekday-02,66-6-0,1,0,Outbound,Harvard Square,Harvard Sq @ Garden St - Dawes Island,33,20700,60,840,840,2024-08-01T05:45:00.000000,2024-08-01T06:22:00.000000,2024-08-01
63089353,32002,216,1,qnctr,Q222-59,BUS32024-hbq34ns1-Weekday-02,216-2-0,1,0,Outbound,Houghs Neck,Quincy Center,53,72900,,900,900,2024-08-01T20:15:00.000000,2024-08-01T20:15:00.000000,2024-08-01
63089353,3237,216,2,,Q222-59,BUS32024-hbq34ns1-Weekday-02,216-2-0,1,0,Outbound,Houghs Neck,Coddington St @ Washington St,53,72900,60,900,900,2024-08-01T20:15:00.000000,2024-08-01T20:16:00.000000,2024-08-01
63089353,3239,216,3,codwd,Q222-59,BUS32024-hbq34ns1-Weekday-02,216-2-0,1,0,Outbound,Houghs Neck,Coddington St @ Quincy YMCA,53,72900,60,900,900,2024-08-01T20:15:00.000000,2024-08-01T20:17:00.000000,2024-08-01
63089353,3425,216,4,,Q222-59,BUS32024-hbq34ns1-Weekday-02,216-2-0,1,0,Outbound,Houghs Neck,Coddington St @ Southern Artery,53,72900,60,900,900,2024-08-01T20:15:00.000000,2024-08-01T20:18:00.000000,2024-08-01
63089353,3240,216,5,sosea,Q222-59,BUS32024-hbq34ns1-Weekday-02,216-2-0,1,0,Outbound,Houghs Neck,55 Sea St,53,72900,60,900,900,2024-08-01T20:15:00.000000,2024-08-01T20:19:00.000000,2024-08-01
63089353,3241,216,6,,Q222-59,BUS32024-hbq34ns1-Weekday-02,216-2-0,1,0,Outbound,Houghs Neck,Sea St opp Overlook Rd,53,72900,60,900,900,2024-08-01T20:15:00.000000,2024-08-01T20:20:00.000000,2024-08-01
63089353,3242,216,7,,Q222-59,BUS32024-hbq34ns1-Weekday-02,216-2-0,1,0,Outbound,Houghs Neck,Sea St opp Samoset Ave,53,72900,0,900,900,2024-08-01T20:15:00.000000,2024-08-01T20:20:00.000000,2024-08-01
63089353,3243,216,8,,Q222-59,BUS32024-hbq34ns1-Weekday-02,216-2-0,1,0,Outbound,Houghs Neck,227 Sea St,53,72900,0,900,900,2024-08-01T20:15:00.000000,2024-08-01T20:20:00.000000,2024-08-01
63089353,3244,216,9,,Q222-59,BUS32024-hbq34ns1-Weekday-02,216-2-0,1,0,Outbound,Houghs Neck,Sea St @ Barbour Terr,53,72900,60,900,900,2024-08-01T20:15:00.000000,2024-08-01T20:21:00.000000,2024-08-01
63089353,13245,216,10,,Q222-59,BUS32024-hbq34ns1-Weekday-02,216-2-0,1,0,Outbound,Houghs Neck,Sea St @ Moffat Rd,53,72900,0,900,900,2024-08-01T20:15:00.000000,2024-08-01T20:21:00.000000,2024-08-01
63089353,3245,216,11,,Q222-59,BUS32024-hbq34ns1-Weekday-02,216-2-0,1,0,Outbound,Houghs Neck,405 Sea St,53,72900,0,900,900,2024-08-01T20:15:00.000000,2024-08-01T20:21:00.000000,2024-08-01
63089353,3246,216,12,,Q222-59,BUS32024-hbq34ns1-Weekday-02,216-2-0,1,0,Outbound,Houghs Neck,455 Sea St,53,72900,0,900,900,2024-08-01T20:15:00.000000,2024-08-01T20:21:00.000000,2024-08-01
63089353,3247,216,13,,Q222-59,BUS32024-hbq34ns1-Weekday-02,216-2-0,1,0,Outbound,Houghs Neck,Sea St @ Braintree Ave,53,72900,60,900,900,2024-08-01T20:15:00.000000,2024-08-01T20:22:00.000000,2024-08-01
63089353,3292,216,14,seast,Q222-59,BUS32024-hbq34ns1-Weekday-02,216-2-0,1,0,Outbound,Houghs Neck,Palmer St @ Sea St,53,72900,0,900,900,2024-08-01T20:15:00.000000,2024-08-01T20:22:00.000000,2024-08-01
63089353,3295,216,15,,Q222-59,BUS32024-hbq34ns1-Weekday-02,216-2-0,1,0,Outbound,Houghs Neck,Palmer St @ Oakwood Rd,53,72900,60,900,900,2024-08-01T20:15:00.000000,2024-08-01T20:23:00.000000,2024-08-01
63089353,3298,216,16,,Q222-59,BUS32024-hbq34ns1-Weekday-02,216-2-0,1,0,Outbound,Houghs Neck,Palmer St @ Forbush Ave,53,72900,60,900,900,2024-08-01T20:15:00.000000,2024-08-01T20:24:00.000000,2024-08-01
63089353,3299,216,17,,Q222-59,BUS32024-hbq34ns1-Weekday-02,216-2-0,1,0,Outbound,Houghs Neck,Palmer St opp Brockton Ave,53,72900,0,900,900,2024-08-01T20:15:00.000000,2024-08-01T20:24:00.000000,2024-08-01
63089353,3300,216,18,,Q222-59,BUS32024-hbq34ns1-Weekday-02,216-2-0,1,0,Outbound,Houghs Neck,Palmer St opp Roach St,53,72900,0,900,900,2024-08-01T20:15:00.000000,2024-08-01T20:24:00.000000,2024-08-01
63089353,3301,216,19,,Q222-59,BUS32024-hbq34ns1-Weekday-02,216-2-0,1,0,Outbound,Houghs Neck,Palmer St opp Bowes Ave,53,72900,0,900,900,2024-08-01T20:15:00.000000,2024-08-01T20:24:00.000000,2024-08-01
63089353,3303,216,20,,Q222-59,BUS32024-hbq34ns1-Weekday-02,216-2-0,1,0,Outbound,Houghs Neck,375 Palmer St,53,72900,60,900,900,2024-08-01T20:15:00.000000,2024-08-01T20:25:00.000000,2024-08-01
63089353,3304,216,21,,Q222-59,BUS32024-hbq34ns1-Weekday-02,216-2-0,1,0,Outbound,Houghs Neck,Palmer St @ Taffrail Rd,53,72900,60,900,900,2024-08-01T20:15:00.000000,2024-08-01T20:26:00.000000,2024-08-01
63089353,3305,216,22,grmnt,Q222-59,BUS32024-hbq34ns1-Weekday-02,216-2-0,1,0,Outbound,Houghs Neck,26 Taffrail Rd,53,72900,0,900,900,2024-08-01T20:15:00.000000,2024-08-01T20:26:00.000000,2024-08-01
63089353,3306,216,23,,Q222-59,BUS32024-hbq34ns1-Weekday-02,216-2-0,1,0,Outbound,Houghs Neck,Taffrail Rd @ Bicknell St,53,72900,0,900,900,2024-08-01T20:15:00.000000,2024-08-01T20:26:00.000000,2024-08-01
63089353,3307,216,24,,Q222-59,BUS32024-hbq34ns1-Weekday-02,216-2-0,1,0,Outbound,Houghs Neck,Bicknell St @ O'Brien Towers Driveway,53,72900,0,900,900,2024-08-01T20:15:00.000000,2024-08-01T20:26:00.000000,2024-08-01
63089353,3308,216,25,,Q222-59,BUS32024-hbq34ns1-Weekday-02,216-2-0,1,0,Outbound,Houghs Neck,O'Brien Towers,53,72900,60,900,900,2024-08-01T20:15:00.000000,2024-08-01T20:27:00.000000,2024-08-01
63089353,3309,216,26,,Q222-59,BUS32024-hbq34ns1-Weekday-02,216-2-0,1,0,Outbound,Houghs Neck,O'Brien Towers Driveway @ Bicknell St,53,72900,0,900,900,2024-08-01T20:15:00.000000,2024-08-01T20:27:00.000000,2024-08-01
63089353,3310,216,27,,Q222-59,BUS32024-hbq34ns1-Weekday-02,216-2-0,1,0,Outbound,Houghs Neck,Bicknell St @ Binnacle Lane,53,72900,0,900,900,2024-08-01T20:15:00.000000,2024-08-01T20:27:00.000000,2024-08-01
63089353,3311,216,28,,Q222-59,BUS32024-hbq34ns1-Weekday-02,216-2-0,1,0,Outbound,Houghs Neck,Bicknell St @ Yardarm Ln,53,72900,60,900,900,2024-08-01T20:15:00.000000,2024-08-01T20:28:00.000000,2024-08-01
63089353,3312,216,29,,Q222-59,BUS32024-hbq34ns1-Weekday-02,216-2-0,1,0,Outbound,Houghs Neck,Palmer St @ Shed St,53,72900,0,900,900,2024-08-01T20:15:00.000000,2024-08-01T20:28:00.000000,2024-08-01
63089353,3314,216,30,,Q222-59,BUS32024-hbq34ns1-Weekday-02,216-2-0,1,0,Outbound,Houghs Neck,Palmer St @ Bowes Ave,53,72900,60,900,900,2024-08-01T20:15:00.000000,2024-08-01T20:29:00.000000,2024-08-01
63089353,3315,216,31,,Q222-59,BUS32024-hbq34ns1-Weekday-02,216-2-0,1,0,Outbound,Houghs Neck,Palmer St @ Roach St,53,72900,0,900,900,2024-08-01T20:15:00.000000,2024-08-01T20:29:00.000000,2024-08-01
63089353,3316,216,32,,Q222-59,BUS32024-hbq34ns1-Weekday-02,216-2-0,1,0,Outbound,Houghs Neck,Palmer St @ Brockton Ave,53,72900,0,900,900,2024-08-01T20:15:00.000000,2024-08-01T20:29:00.000000,2024-08-01
63089353,3317,216,33,,Q222-59,BUS32024-hbq34ns1-Weekday-02,216-2-0,1,0,Outbound,Houghs Neck,Palmer St @ Empire St,53,72900,60,900,900,2024-08-01T20:15:00.000000,2024-08-01T20:30:00.000000,2024-08-01
63089353,3320,216,34,,Q222-59,BUS32024-hbq34ns1-Weekday-02,216-2-0,1,0,Outbound,Houghs Neck,Palmer St opp Oakwood Rd,53,72900,0,900,900,2024-08-01T20:15:00.000000,2024-08-01T20:30:00.000000,2024-08-01
63089353,3321,216,35,,Q222-59,BUS32024-hbq34ns1-Weekday-02,216-2-0,1,0,Outbound,Houghs Neck,Palmer St opp Wilgus Rd,53,72900,0,900,900,2024-08-01T20:15:00.000000,2024-08-01T20:30:00.000000,2024-08-01
63089353,3322,216,36,,Q222-59,BUS32024-hbq34ns1-Weekday-02,216-2-0,1,0,Outbound,Houghs Neck,Palmer St opp Utica St,53,72900,60,900,900,2024-08-01T20:15:00.000000,2024-08-01T20:31:00.000000,2024-08-01
63089353,3323,216,37,,Q222-59,BUS32024-hbq34ns1-Weekday-02,216-2-0,1,0,Outbound,Houghs Neck,Palmer St @ Sea St,53,72900,0,900,900,2024-08-01T20:15:00.000000,2024-08-01T20:31:00.000000,2024-08-01
63089353,3249,216,38,,Q222-59,BUS32024-hbq34ns1-Weekday-02,216-2-0,1,0,Outbound,Houghs Neck,565 Sea St,53,72900,0,900,900,2024-08-01T20:15:00.000000,2024-08-01T20:31:00.000000,2024-08-01
63089353,3250,216,39,,Q222-59,BUS32024-hbq34ns1-Weekday-02,216-2-0,1,0,Outbound,Houghs Neck,Sea St @ Lee St,53,72900,60,900,900,2024-08-01T20:15:00.000000,2024-08-01T20:32:00.000000,2024-08-01
63089353,3251,216,40,,Q222-59,BUS32024-hbq34ns1-Weekday-02,216-2-0,1,0,Outbound,Houghs Neck,Opp 700 Sea St,53,72900,60,900,900,2024-08-01T20:15:00.000000,2024-08-01T20:33:00.000000,2024-08-01
63089353,3252,216,41,,Q222-59,BUS32024-hbq34ns1-Weekday-02,216-2-0,1,0,Outbound,Houghs Neck,749 Sea St,53,72900,0,900,900,2024-08-01T20:15:00.000000,2024-08-01T20:33:00.000000,2024-08-01
63089353,3253,216,42,,Q222-59,BUS32024-hbq34ns1-Weekday-02,216-2-0,1,0,Outbound,Houghs Neck,Sea St @ Babcock St,53,72900,60,900,900,2024-08-01T20:15:00.000000,2024-08-01T20:34:00.000000,2024-08-01
63089353,3254,216,43,,Q222-59,BUS32024-hbq34ns1-Weekday-02,216-2-0,1,0,Outbound,Houghs Neck,Sea St opp Manet Ave,53,72900,0,900,900,2024-08-01T20:15:00.000000,2024-08-01T20:34:00.000000,2024-08-01
63089353,3255,216,44,,Q222-59,BUS32024-hbq34ns1-Weekday-02,216-2-0,1,0,Outbound,Houghs Neck,Sea St opp Newton St,53,72900,0,900,900,2024-08-01T20:15:00.000000,2024-08-01T20:34:00.000000,2024-08-01
63089353,3256,216,45,,Q222-59,BUS32024-hbq34ns1-Weekday-02,216-2-0,1,0,Outbound,Houghs Neck,Sea St opp Malvern St,53,72900,60,900,900,2024-08-01T20:15:00.000000,2024-08-01T20:35:00.000000,2024-08-01
63089353,3257,216,46,,Q222-59,BUS32024-hbq34ns1-Weekday-02,216-2-0,1,0,Outbound,Houghs Neck,Sea St @ Rockland St,53,72900,0,900,900,2024-08-01T20:15:00.000000,2024-08-01T20:35:00.000000,2024-08-01
63089353,3258,216,47,,Q222-59,BUS32024-hbq34ns1-Weekday-02,216-2-0,1,0,Outbound,Houghs Neck,Sea St @ Darrow St,53,72900,0,900,900,2024-08-01T20:15:00.000000,2024-08-01T20:35:00.000000,2024-08-01
63089353,3259,216,48,,Q222-59,BUS32024-hbq34ns1-Weekday-02,216-2-0,1,0,Outbound,Houghs Neck,Sea St @ Manet Ave,53,72900,60,900,900,2024-08-01T20:15:00.000000,2024-08-01T20:36:00.000000,2024-08-01
63089353,3260,216,49,,Q222-59,BUS32024-hbq34ns1-Weekday-02,216-2-0,1,0,Outbound,Houghs Neck,Sea St @ Wall St,53,72900,60,900,900,2024-08-01T20:15:00.000000,2024-08-01T20:37:00.000000,2024-08-01
63089353,3261,216,50,,Q222-59,BUS32024-hbq34ns1-Weekday-02,216-2-0,1,0,Outbound,Houghs Neck,Sea St @ Bell St,53,72900,0,900,900,2024-08-01T20:15:00.000000,2024-08-01T20:37:00.000000,2024-08-01
63089353,3262,216,51,,Q222-59,BUS32024-hbq34ns1-Weekday-02,216-2-0,1,0,Outbound,Houghs Neck,Sea St @ Thomas St,53,72900,0,900,900,2024-08-01T20:15:00.000000,2024-08-01T20:37:00.000000,2024-08-01
63089353,3263,216,52,,Q222-59,BUS32024-hbq34ns1-Weekday-02,216-2-0,1,0,Outbound,Houghs Neck,1263 Sea St,53,72900,0,900,900,2024-08-01T20:15:00.000000,2024-08-01T20:37:00.000000,2024-08-01
63089353,3265,216,53,hsnck,Q222-59,BUS32024-hbq34ns1-Weekday-02,216-2-0,1,0,Outbound,Houghs Neck,Sea St @ Fensmere Ave,53,72900,60,900,900,2024-08-01T20:15:00.000000,2024-08-01T20:38:00.000000,2024-08-01
63101043,5072,101,1,malst,F101-47,BUS32024-hbf34ns1-Weekday-02,101-3-1,1,1,Inbound,Sullivan Square Station,Malden Center,39,43200,,1200,1200,2024-08-01T12:00:00.000000,2024-08-01T12:00:00.000000,2024-08-01
63101043,5328,101,2,,F101-47,BUS32024-hbf34ns1-Weekday-02,101-3-1,1,1,Inbound,Sullivan Square Station,Pleasant St @ Elm St,39,43200,60,1200,1200,2024-08-01T12:00:00.000000,2024-08-01T12:01:00.000000,2024-08-01
63101043,9028,101,3,,F101-47,BUS32024-hbf34ns1-Weekday-02,101-3-1,1,1,Inbound,Sullivan Square Station,Pleasant St opp Russell St,39,43200,60,1200,1200,2024-08-01T12:00:00.000000,2024-08-01T12:02:00.000000,2024-08-01
63101043,5330,101,4,,F101-47,BUS32024-hbf34ns1-Weekday-02,101-3-1,1,1,Inbound,Sullivan Square Station,Pleasant St @ Prospect St,39,43200,0,1200,1200,2024-08-01T12:00:00.000000,2024-08-01T12:02:00.000000,2024-08-01
63101043,5331,101,5,,F101-47,BUS32024-hbf34ns1-Weekday-02,101-3-1,1,1,Inbound,Sullivan Square Station,Pleasant St opp West St,39,43200,60,1200,1200,2024-08-01T12:00:00.000000,2024-08-01T12:03:00.000000,2024-08-01
63101043,45332,101,6,,F101-47,BUS32024-hbf34ns1-Weekday-02,101-3-1,1,1,Inbound,Sullivan Square Station,Pleasant St @ Vista St,39,43200,0,1200,1200,2024-08-01T12:00:00.000000,2024-08-01T12:03:00.000000,2024-08-01
63101043,5332,101,7,,F101-47,BUS32024-hbf34ns1-Weekday-02,101-3-1,1,1,Inbound,Sullivan Square Station,Pleasant St @ Fellsway E,39,43200,0,1200,1200,2024-08-01T12:00:00.000000,2024-08-01T12:03:00.000000,2024-08-01
63101043,8308,101,8,,F101-47,BUS32024-hbf34ns1-Weekday-02,101-3-1,1,1,Inbound,Sullivan Square Station,Salem St @ Fellsway W,39,43200,60,1200,1200,2024-08-01T12:00:00.000000,2024-08-01T12:04:00.000000,2024-08-01
63101043,5282,101,9,fells,F101-47,BUS32024-hbf34ns1-Weekday-02,101-3-1,1,1,Inbound,Sullivan Square Station,Salem St @ Grant Ave,39,43200,60,1200,1200,2024-08-01T12:00:00.000000,2024-08-01T12:05:00.000000,2024-08-01
63101043,5283,101,10,,F101-47,BUS32024-hbf34ns1-Weekday-02,101-3-1,1,1,Inbound,Sullivan Square Station,390 Salem St,39,43200,0,1200,1200,2024-08-01T12:00:00.000000,2024-08-01T12:05:00.000000,2024-08-01
63101043,5284,101,11,,F101-47,BUS32024-hbf34ns1-Weekday-02,101-3-1,1,1,Inbound,Sullivan Square Station,Salem St @ Almont St,39,43200,60,1200,1200,2024-08-01T12:00:00.000000,2024-08-01T12:06:00.000000,2024-08-01
63101043,5285,101,12,,F101-47,BUS32024-hbf34ns1-Weekday-02,101-3-1,1,1,Inbound,Sullivan Square Station,Salem St @ Paris St,39,43200,0,1200,1200,2024-08-01T12:00:00.000000,2024-08-01T12:06:00.000000,2024-08-01
63101043,5286,101,13,,F101-47,BUS32024-hbf34ns1-Weekday-02,101-3-1,1,1,Inbound,Sullivan Square Station,Salem St @ Court St,39,43200,60,1200,1200,2024-08-01T12:00:00.000000,2024-08-01T12:07:00.000000,2024-08-01
63101043,5287,101,14,,F101-47,BUS32024-hbf34ns1-Weekday-02,101-3-1,1,1,Inbound,Sullivan Square Station,Salem St @ Allen Ct,39,43200,60,1200,1200,2024-08-01T12:00:00.000000,2024-08-01T12:08:00.000000,2024-08-01
63101043,5002,101,15,medfd,F101-47,BUS32024-hbf34ns1-Weekday-02,101-3-1,1,1,Inbound,Sullivan Square Station,Salem St opp River St,39,43200,120,1200,1200,2024-08-01T12:00:00.000000,2024-08-01T12:10:00.000000,2024-08-01
63101043,5031,101,16,,F101-47,BUS32024-hbf34ns1-Weekday-02,101-3-1,1,1,Inbound,Sullivan Square Station,Main St @ High St,39,43200,0,1200,1200,2024-08-01T12:00:00.000000,2024-08-01T12:10:00.000000,2024-08-01
63101043,5032,101,17,,F101-47,BUS32024-hbf34ns1-Weekday-02,101-3-1,1,1,Inbound,Sullivan Square Station,Main St @ Emerson St,39,43200,60,1200,1200,2024-08-01T12:00:00.000000,2024-08-01T12:11:00.000000,2024-08-01
63101043,5290,101,18,,F101-47,BUS32024-hbf34ns1-Weekday-02,101-3-1,1,1,Inbound,Sullivan Square Station,Main St @ Summer St,39,43200,0,1200,1200,2024-08-01T12:00:00.000000,2024-08-01T12:11:00.000000,2024-08-01
63101043,5291,101,19,mngrg,F101-47,BUS32024-hbf34ns1-Weekday-02,101-3-1,1,1,Inbound,Sullivan Square Station,Main St @ George St,39,43200,0,1200,1200,2024-08-01T12:00:00.000000,2024-08-01T12:11:00.000000,2024-08-01
63101043,5292,101,20,,F101-47,BUS32024-hbf34ns1-Weekday-02,101-3-1,1,1,Inbound,Sullivan Square Station,Main St @ Stearns Ave,39,43200,60,1200,1200,2024-08-01T12:00:00.000000,2024-08-01T12:12:00.000000,2024-08-01
63101043,5293,101,21,,F101-47,BUS32024-hbf34ns1-Weekday-02,101-3-1,1,1,Inbound,Sullivan Square Station,Main St @ Windsor Rd,39,43200,0,1200,1200,2024-08-01T12:00:00.000000,2024-08-01T12:12:00.000000,2024-08-01
63101043,5294,101,22,,F101-47,BUS32024-hbf34ns1-Weekday-02,101-3-1,1,1,Inbound,Sullivan Square Station,Main St @ Wellesley St,39,43200,60,1200,1200,2024-08-01T12:00:00.000000,2024-08-01T12:13:00.000000,2024-08-01
63101043,5295,101,23,,F101-47,BUS32024-hbf34ns1-Weekday-02,101-3-1,1,1,Inbound,Sullivan Square Station,Main St @ Princeton St,39,43200,0,1200,1200,2024-08-01T12:00:00.000000,2024-08-01T12:13:00.000000,2024-08-01
63101043,5296,101,24,,F101-47,BUS32024-hbf34ns1-Weekday-02,101-3-1,1,1,Inbound,Sullivan Square Station,Main St @ Harvard St,39,43200,60,1200,1200,2024-08-01T12:00:00.000000,2024-08-01T12:14:00.000000,2024-08-01
63101043,5297,101,25,,F101-47,BUS32024-hbf34ns1-Weekday-02,101-3-1,1,1,Inbound,Sullivan Square Station,Main St @ Marion St,39,43200,0,1200,1200,2024-08-01T12:00:00.000000,2024-08-01T12:14:00.000000,2024-08-01
63101043,5298,101,26,tufts,F101-47,BUS32024-hbf34ns1-Weekday-02,101-3-1,1,1,Inbound,Sullivan Square Station,Main St @ Medford St,39,43200,60,1200,1200,2024-08-01T12:00:00.000000,2024-08-01T12:15:00.000000,2024-08-01
63101043,5299,101,27,,F101-47,BUS32024-hbf34ns1-Weekday-02,101-3-1,1,1,Inbound,Sullivan Square Station,Main St @ Albion St,39,43200,60,1200,1200,2024-08-01T12:00:00.000000,2024-08-01T12:16:00.000000,2024-08-01
63101043,5300,101,28,,F101-47,BUS32024-hbf34ns1-Weekday-02,101-3-1,1,1,Inbound,Sullivan Square Station,Main St @ Dexter St,39,43200,60,1200,1200,2024-08-01T12:00:00.000000,2024-08-01T12:17:00.000000,2024-08-01
63101043,5301,101,29,,F101-47,BUS32024-hbf34ns1-Weekday-02,101-3-1,1,1,Inbound,Sullivan Square Station,Main St @ Bow St,39,43200,60,1200,1200,2024-08-01T12:00:00.000000,2024-08-01T12:18:00.000000,2024-08-01
63101043,5302,101,30,,F101-47,BUS32024-hbf34ns1-Weekday-02,101-3-1,1,1,Inbound,Sullivan Square Station,Main St opp Moreland St,39,43200,0,1200,1200,2024-08-01T12:00:00.000000,2024-08-01T12:18:00.000000,2024-08-01
63101043,5303,101,31,whill,F101-47,BUS32024-hbf34ns1-Weekday-02,101-3-1,1,1,Inbound,Sullivan Square Station,Main St @ Broadway,39,43200,60,1200,1200,2024-08-01T12:00:00.000000,2024-08-01T12:19:00.000000,2024-08-01
63101043,2704,101,32,,F101-47,BUS32024-hbf34ns1-Weekday-02,101-3-1,1,1,Inbound,Sullivan Square Station,Broadway @ Thurston St,39,43200,60,1200,600,2024-08-01T12:00:00.000000,2024-08-01T12:20:00.000000,2024-08-01
63101043,2706,101,33,,F101-47,BUS32024-hbf34ns1-Weekday-02,101-3-1,1,1,Inbound,Sullivan Square Station,Broadway @ Marshall St,39,43200,60,1200,600,2024-08-01T12:00:00.000000,2024-08-01T12:21:00.000000,2024-08-01
63101043,2707,101,34,,F101-47,BUS32024-hbf34ns1-Weekday-02,101-3-1,1,1,Inbound,Sullivan Square Station,Broadway @ Montgomery Ave,39,43200,60,1200,600,2024-08-01T12:00:00.000000,2024-08-01T12:22:00.000000,2024-08-01
63101043,2710,101,35,,F101-47,BUS32024-hbf34ns1-Weekday-02,101-3-1,1,1,Inbound,Sullivan Square Station,Broadway @ Cross St,39,43200,120,1200,600,2024-08-01T12:00:00.000000,2024-08-01T12:24:00.000000,2024-08-01
63101043,2711,101,36,,F101-47,BUS32024-hbf34ns1-Weekday-02,101-3-1,1,1,Inbound,Sullivan Square Station,Broadway @ Glen St,39,43200,60,1200,600,2024-08-01T12:00:00.000000,2024-08-01T12:25:00.000000,2024-08-01
63101043,2713,101,37,,F101-47,BUS32024-hbf34ns1-Weekday-02,101-3-1,1,1,Inbound,Sullivan Square Station,Broadway @ Lincoln St,39,43200,60,1200,600,2024-08-01T12:00:00.000000,2024-08-01T12:26:00.000000,2024-08-01
63101043,2714,101,38,,F101-47,BUS32024-hbf34ns1-Weekday-02,101-3-1,1,1,Inbound,Sullivan Square Station,Broadway @ Mt Vernon St,39,43200,60,1200,60,2024-08-01T12:00:00.000000,2024-08-01T12:27:00.000000,2024-08-01
63101043,29001,101,39,sull,F101-47,BUS32024-hbf34ns1-Weekday-02,101-3-1,1,1,Inbound,Sullivan Square Station,Sullivan Square,39,43200,60,1200,0,2024-08-01T12:00:00.000000,2024-08-01T12:28:00.000000,2024-08-01
63156984,141,67,1,alewf,T67-22,BUS32024-hbt34ns1-Weekday-02,67-4-0,1,0,Outbound,Turkey Hill,Alewife,21,40200,,3000,3000,2024-08-01T11:10:00.000000,2024-08-01T11:10:00.000000,2024-08-01
63156984,2482,67,2,,T67-22,BUS32024-hbt34ns1-Weekday-02,67-4-0,1,0,Outbound,Turkey Hill,West Service Rd @ Lake St,21,40200,180,3000,3000,2024-08-01T11:10:00.000000,2024-08-01T11:13:00.000000,2024-08-01
63156984,23530,67,3,,T67-22,BUS32024-hbt34ns1-Weekday-02,67-4-0,1,0,Outbound,Turkey Hill,244 Pleasant St opp Brunswick Rd,21,40200,120,3000,3000,2024-08-01T11:10:00.000000,2024-08-01T11:15:00.000000,2024-08-01
63156984,23531,67,4,,T67-22,BUS32024-hbt34ns1-Weekday-02,67-4-0,1,0,Outbound,Turkey Hill,Pleasant St @ Gould Rd,21,40200,0,3000,3000,2024-08-01T11:10:00.000000,2024-08-01T11:15:00.000000,2024-08-01
63156984,23532,67,5,,T67-22,BUS32024-hbt34ns1-Weekday-02,67-4-0,1,0,Outbound,Turkey Hill,Pleasant St @ Spring Valley St,21,40200,60,3000,3000,2024-08-01T11:10:00.000000,2024-08-01T11:16:00.000000,2024-08-01
63156984,23533,67,6,,T67-22,BUS32024-hbt34ns1-Weekday-02,67-4-0,1,0,Outbound,Turkey Hill,Pleasant St @ Wellington St,21,40200,0,3000,3000,2024-08-01T11:10:00.000000,2024-08-01T11:16:00.000000,2024-08-01
63156984,2283,67,7,arlct,T67-22,BUS32024-hbt34ns1-Weekday-02,67-4-0,1,0,Outbound,Turkey Hill,Massachusetts Ave @ Mystic St,21,40200,60,3000,3000,2024-08-01T11:10:00.000000,2024-08-01T11:17:00.000000,2024-08-01
63156984,2284,67,8,,T67-22,BUS32024-hbt34ns1-Weekday-02,67-4-0,1,0,Outbound,Turkey Hill,Massachusetts Ave @ Central St,21,40200,60,3000,3000,2024-08-01T11:10:00.000000,2024-08-01T11:18:00.000000,2024-08-01
63156984,7976,67,9,,T67-22,BUS32024-hbt34ns1-Weekday-02,67-4-0,1,0,Outbound,Turkey Hill,Mill St @ Bacon St,21,40200,0,3000,3000,2024-08-01T11:10:00.000000,2024-08-01T11:18:00.000000,2024-08-01
63156984,7977,67,10,,T67-22,BUS32024-hbt34ns1-Weekday-02,67-4-0,1,0,Outbound,Turkey Hill,Summer St @ Winthrop Rd,21,40200,60,3000,3000,2024-08-01T11:10:00.000000,2024-08-01T11:19:00.000000,2024-08-01
63156984,7978,67,11,,T67-22,BUS32024-hbt34ns1-Weekday-02,67-4-0,1,0,Outbound,Turkey Hill,Summer St @ Oak Hill Dr,21,40200,60,3000,3000,2024-08-01T11:10:00.000000,2024-08-01T11:20:00.000000,2024-08-01
63156984,7979,67,12,,T67-22,BUS32024-hbt34ns1-Weekday-02,67-4-0,1,0,Outbound,Turkey Hill,Summer St @ Symmes Rd,21,40200,60,3000,3000,2024-08-01T11:10:00.000000,2024-08-01T11:21:00.000000,2024-08-01
63156984,7981,67,13,,T67-22,BUS32024-hbt34ns1-Weekday-02,67-4-0,1,0,Outbound,Turkey Hill,Symmes Circle @ Symmes Rd,21,40200,120,3000,3000,2024-08-01T11:10:00.000000,2024-08-01T11:23:00.000000,2024-08-01
63156984,7953,67,14,,T67-22,BUS32024-hbt34ns1-Weekday-02,67-4-0,1,0,Outbound,Turkey Hill,Summer St opp Washington St,21,40200,180,3000,3000,2024-08-01T11:10:00.000000,2024-08-01T11:26:00.000000,2024-08-01
63156984,7954,67,15,,T67-22,BUS32024-hbt34ns1-Weekday-02,67-4-0,1,0,Outbound,Turkey Hill,Washington St @ Candia St,21,40200,0,3000,3000,2024-08-01T11:10:00.000000,2024-08-01T11:26:00.000000,2024-08-01
63156984,7955,67,16,,T67-22,BUS32024-hbt34ns1-Weekday-02,67-4-0,1,0,Outbound,Turkey Hill,Washington St @ Ronald Rd,21,40200,60,3000,3000,2024-08-01T11:10:00.000000,2024-08-01T11:27:00.000000,2024-08-01
63156984,7956,67,17,,T67-22,BUS32024-hbt34ns1-Weekday-02,67-4-0,1,0,Outbound,Turkey Hill,Washington St @ Mountain Ave,21,40200,60,3000,3000,2024-08-01T11:10:00.000000,2024-08-01T11:28:00.000000,2024-08-01
63156984,7959,67,18,,T67-22,BUS32024-hbt34ns1-Weekday-02,67-4-0,1,0,Outbound,Turkey Hill,Clyde Terr @ Lawrence Ln,21,40200,60,3000,3000,2024-08-01T11:10:00.000000,2024-08-01T11:29:00.000000,2024-08-01
63156984,7960,67,19,,T67-22,BUS32024-hbt34ns1-Weekday-02,67-4-0,1,0,Outbound,Turkey Hill,Forest St @ Thomas St,21,40200,60,3000,3000,2024-08-01T11:10:00.000000,2024-08-01T11:30:00.000000,2024-08-01
63156984,7962,67,20,,T67-22,BUS32024-hbt34ns1-Weekday-02,67-4-0,1,0,Outbound,Turkey Hill,Forest St @ Hancock St,21,40200,60,3000,3000,2024-08-01T11:10:00.000000,2024-08-01T11:31:00.000000,2024-08-01
63156984,7961,67,21,trkhl,T67-22,BUS32024-hbt34ns1-Weekday-02,67-4-0,1,0,Outbound,Turkey Hill,Forest St @ Heard Rd,21,40200,0,3000,3000,2024-08-01T11:10:00.000000,2024-08-01T11:31:00.000000,2024-08-01
63157369,20761,71,1,bally,T71-68,BUS32024-hbt34ns1-Weekday-02,71-2-0,1,0,Outbound,Watertown Square,Harvard,22,40620,,960,960,2024-08-01T11:17:00.000000,2024-08-01T11:17:00.000000,2024-08-01
63157369,2020,71,2,mtsty,T71-68,BUS32024-hbt34ns1-Weekday-02,71-2-0,1,0,Outbound,Watertown Square,Mt Auburn St @ Story St,22,40620,120,960,960,2024-08-01T11:17:00.000000,2024-08-01T11:19:00.000000,2024-08-01
63157369,2021,71,3,,T71-68,BUS32024-hbt34ns1-Weekday-02,71-2-0,1,0,Outbound,Watertown Square,Mt Auburn St @ Ash St,22,40620,60,960,960,2024-08-01T11:17:00.000000,2024-08-01T11:20:00.000000,2024-08-01
63157369,2023,71,4,,T71-68,BUS32024-hbt34ns1-Weekday-02,71-2-0,1,0,Outbound,Watertown Square,Mt Auburn St @ Sparks St,22,40620,60,960,960,2024-08-01T11:17:00.000000,2024-08-01T11:21:00.000000,2024-08-01
63157369,2025,71,5,mthsp,T71-68,BUS32024-hbt34ns1-Weekday-02,71-2-0,1,0,Outbound,Watertown Square,Mt Auburn St @ Longfellow Rd,22,40620,60,960,960,2024-08-01T11:17:00.000000,2024-08-01T11:22:00.000000,2024-08-01
63157369,2026,71,6,,T71-68,BUS32024-hbt34ns1-Weekday-02,71-2-0,1,0,Outbound,Watertown Square,Mt Auburn St @ Traill St,22,40620,60,960,960,2024-08-01T11:17:00.000000,2024-08-01T11:23:00.000000,2024-08-01
63157369,2027,71,7,,T71-68,BUS32024-hbt34ns1-Weekday-02,71-2-0,1,0,Outbound,Watertown Square,Mt Auburn St opp Coolidge Ave,22,40620,60,960,960,2024-08-01T11:17:00.000000,2024-08-01T11:24:00.000000,2024-08-01
63157369,2028,71,8,,T71-68,BUS32024-hbt34ns1-Weekday-02,71-2-0,1,0,Outbound,Watertown Square,Mt Auburn St @ Brattle St,22,40620,60,960,960,2024-08-01T11:17:00.000000,2024-08-01T11:25:00.000000,2024-08-01
63157369,2030,71,9,mtaub,T71-68,BUS32024-hbt34ns1-Weekday-02,71-2-0,1,0,Outbound,Watertown Square,Mt Auburn St @ Homer Ave,22,40620,60,960,960,2024-08-01T11:17:00.000000,2024-08-01T11:26:00.000000,2024-08-01
63157369,2032,71,10,,T71-68,BUS32024-hbt34ns1-Weekday-02,71-2-0,1,0,Outbound,Watertown Square,Mt Auburn St @ Saint Marys St,22,40620,60,960,960,2024-08-01T11:17:00.000000,2024-08-01T11:27:00.000000,2024-08-01
63157369,2033,71,11,,T71-68,BUS32024-hbt34ns1-Weekday-02,71-2-0,1,0,Outbound,Watertown Square,Mt Auburn St @ Keenan St,22,40620,60,960,960,2024-08-01T11:17:00.000000,2024-08-01T11:28:00.000000,2024-08-01
63157369,2034,71,12,,T71-68,BUS32024-hbt34ns1-Weekday-02,71-2-0,1,0,Outbound,Watertown Square,Mt Auburn St @ Kimball Rd,22,40620,0,960,960,2024-08-01T11:17:00.000000,2024-08-01T11:28:00.000000,2024-08-01
63157369,2036,71,13,,T71-68,BUS32024-hbt34ns1-Weekday-02,71-2-0,1,0,Outbound,Watertown Square,Mt Auburn St @ Upland Rd,22,40620,60,960,960,2024-08-01T11:17:00.000000,2024-08-01T11:29:00.000000,2024-08-01
63157369,2037,71,14,,T71-68,BUS32024-hbt34ns1-Weekday-02,71-2-0,1,0,Outbound,Watertown Square,Mt Auburn St @ Winsor Ave,22,40620,60,960,960,2024-08-01T11:17:00.000000,2024-08-01T11:30:00.000000,2024-08-01
63157369,2038,71,15,,T71-68,BUS32024-hbt34ns1-Weekday-02,71-2-0,1,0,Outbound,Watertown Square,Mt Auburn St @ Adams Ave,22,40620,60,960,960,2024-08-01T11:17:00.000000,2024-08-01T11:31:00.000000,2024-08-01
63157369,2040,71,16,,T71-68,BUS32024-hbt34ns1-Weekday-02,71-2-0,1,0,Outbound,Watertown Square,Mt Auburn St @ Amherst Rd,22,40620,60,960,960,2024-08-01T11:17:00.000000,2024-08-01T11:32:00.000000,2024-08-01
63157369,2047,71,17,,T71-68,BUS32024-hbt34ns1-Weekday-02,71-2-0,1,0,Outbound,Watertown Square,Mt Auburn St @ Bates Rd E,22,40620,60,960,960,2024-08-01T11:17:00.000000,2024-08-01T11:33:00.000000,2024-08-01
63157369,2042,71,18,,T71-68,BUS32024-hbt34ns1-Weekday-02,71-2-0,1,0,Outbound,Watertown Square,Mt Auburn St @ Russell Ave,22,40620,0,960,960,2024-08-01T11:17:00.000000,2024-08-01T11:33:00.000000,2024-08-01
63157369,2043,71,19,wtrhs,T71-68,BUS32024-hbt34ns1-Weekday-02,71-2-0,1,0,Outbound,Watertown Square,Mt Auburn St @ Marshall St,22,40620,60,960,960,2024-08-01T11:17:00.000000,2024-08-01T11:34:00.000000,2024-08-01
63157369,2044,71,20,,T71-68,BUS32024-hbt34ns1-Weekday-02,71-2-0,1,0,Outbound,Watertown Square,Mt Auburn St @ Summer St,22,40620,120,960,960,2024-08-01T11:17:00.000000,2024-08-01T11:36:00.000000,2024-08-01
63157369,2046,71,21,,T71-68,BUS32024-hbt34ns1-Weekday-02,71-2-0,1,0,Outbound,Watertown Square,Mt Auburn St @ Main St,22,40620,120,960,960,2024-08-01T11:17:00.000000,2024-08-01T11:38:00.000000,2024-08-01
63157369,8178,71,22,wtrsq,T71-68,BUS32024-hbt34ns1-Weekday-02,71-2-0,1,0,Outbound,Watertown Square,Watertown Sq Terminal,22,40620,60,960,480,2024-08-01T11:17:00.000000,2024-08-01T11:39:00.000000,2024-08-01
63157836,2362,80,1,arlct,T80-134,BUS32024-hbt34ns1-Weekday-02,80-_-1,1,1,Inbound,Lechmere Station,Medford St @ Massachusetts Ave,37,29400,,2700,2700,2024-08-01T08:10:00.000000,2024-08-01T08:10:00.000000,2024-08-01
63157836,2363,80,2,,T80-134,BUS32024-hbt34ns1-Weekday-02,80-_-1,1,1,Inbound,Lechmere Station,Medford St @ Lewis Ave,37,29400,60,2700,2700,2024-08-01T08:10:00.000000,2024-08-01T08:11:00.000000,2024-08-01
63157836,2365,80,3,,T80-134,BUS32024-hbt34ns1-Weekday-02,80-_-1,1,1,Inbound,Lechmere Station,Medford St @ Hamlet St,37,29400,0,2700,2700,2024-08-01T08:10:00.000000,2024-08-01T08:11:00.000000,2024-08-01
63157836,2366,80,4,,T80-134,BUS32024-hbt34ns1-Weekday-02,80-_-1,1,1,Inbound,Lechmere Station,Medford St opp Hayes St - Medford Line,37,29400,60,2700,2700,2024-08-01T08:10:00.000000,2024-08-01T08:12:00.000000,2024-08-01
63157836,2367,80,5,,T80-134,BUS32024-hbt34ns1-Weekday-02,80-_-1,1,1,Inbound,Lechmere Station,High St @ Jerome St,37,29400,0,2700,2700,2024-08-01T08:10:00.000000,2024-08-01T08:12:00.000000,2024-08-01
63157836,2368,80,6,,T80-134,BUS32024-hbt34ns1-Weekday-02,80-_-1,1,1,Inbound,Lechmere Station,High St @ Monument St,37,29400,60,2700,2700,2024-08-01T08:10:00.000000,2024-08-01T08:13:00.000000,2024-08-01
63157836,3513,80,7,boshi,T80-134,BUS32024-hbt34ns1-Weekday-02,80-_-1,1,1,Inbound,Lechmere Station,Boston Ave @ High St,37,29400,0,2700,2700,2024-08-01T08:10:00.000000,2024-08-01T08:13:00.000000,2024-08-01
63157836,2369,80,8,,T80-134,BUS32024-hbt34ns1-Weekday-02,80-_-1,1,1,Inbound,Lechmere Station,Boston Ave @ Harvard Ave,37,29400,60,2700,2700,2024-08-01T08:10:00.000000,2024-08-01T08:14:00.000000,2024-08-01
63157836,2370,80,9,,T80-134,BUS32024-hbt34ns1-Weekday-02,80-_-1,1,1,Inbound,Lechmere Station,Boston Ave @ Holton St,37,29400,0,2700,2700,2024-08-01T08:10:00.000000,2024-08-01T08:14:00.000000,2024-08-01
63157836,2371,80,10,,T80-134,BUS32024-hbt34ns1-Weekday-02,80-_-1,1,1,Inbound,Lechmere Station,Boston Ave @ Arlington St,37,29400,60,2700,2700,2024-08-01T08:10:00.000000,2024-08-01T08:15:00.000000,2024-08-01
63157836,2372,80,11,,T80-134,BUS32024-hbt34ns1-Weekday-02,80-_-1,1,1,Inbound,Lechmere Station,Boston Ave @ Mystic Valley Pkwy,37,29400,60,2700,2700,2024-08-01T08:10:00.000000,2024-08-01T08:16:00.000000,2024-08-01
63157836,2373,80,12,,T80-134,BUS32024-hbt34ns1-Weekday-02,80-_-1,1,1,Inbound,Lechmere Station,Boston Ave @ Harris Rd,37,29400,0,2700,2700,2024-08-01T08:10:00.000000,2024-08-01T08:16:00.000000,2024-08-01
63157836,2374,80,13,nostr,T80-134,BUS32024-hbt34ns1-Weekday-02,80-_-1,1,1,Inbound,Lechmere Station,Boston Ave @ North St,37,29400,60,2700,2700,2024-08-01T08:10:00.000000,2024-08-01T08:17:00.000000,2024-08-01
63157836,2375,80,14,,T80-134,BUS32024-hbt34ns1-Weekday-02,80-_-1,1,1,Inbound,Lechmere Station,Boston Ave @ Hillsdale Rd,37,29400,60,2700,2700,2024-08-01T08:10:00.000000,2024-08-01T08:18:00.000000,2024-08-01
63157836,2376,80,15,,T80-134,BUS32024-hbt34ns1-Weekday-02,80-_-1,1,1,Inbound,Lechmere Station,Boston Ave @ Winthrop St,37,29400,0,2700,2700,2024-08-01T08:10:00.000000,2024-08-01T08:18:00.000000,2024-08-01
63157836,2378,80,16,,T80-134,BUS32024-hbt34ns1-Weekday-02,80-_-1,1,1,Inbound,Lechmere Station,Boston Ave @ Tufts Garage,37,29400,60,2700,2700,2024-08-01T08:10:00.000000,2024-08-01T08:19:00.000000,2024-08-01
63157836,2379,80,17,,T80-134,BUS32024-hbt34ns1-Weekday-02,80-_-1,1,1,Inbound,Lechmere Station,College Ave @ Boston Ave,37,29400,60,2700,2700,2024-08-01T08:10:00.000000,2024-08-01T08:20:00.000000,2024-08-01
63157836,2380,80,18,,T80-134,BUS32024-hbt34ns1-Weekday-02,80-_-1,1,1,Inbound,Lechmere Station,College Ave @ Professors Row,37,29400,60,2700,2700,2024-08-01T08:10:00.000000,2024-08-01T08:21:00.000000,2024-08-01
63157836,2381,80,19,powdr,T80-134,BUS32024-hbt34ns1-Weekday-02,80-_-1,1,1,Inbound,Lechmere Station,College Ave @ Powder House Sq,37,29400,60,2700,2700,2024-08-01T08:10:00.000000,2024-08-01T08:22:00.000000,2024-08-01
63157836,2695,80,20,,T80-134,BUS32024-hbt34ns1-Weekday-02,80-_-1,1,1,Inbound,Lechmere Station,Broadway opp Warner St - Powder House Sq,37,29400,60,2700,2700,2024-08-01T08:10:00.000000,2024-08-01T08:23:00.000000,2024-08-01
63157836,2696,80,21,,T80-134,BUS32024-hbt34ns1-Weekday-02,80-_-1,1,1,Inbound,Lechmere Station,Broadway @ Bay State Ave,37,29400,0,2700,2700,2024-08-01T08:10:00.000000,2024-08-01T08:23:00.000000,2024-08-01
63157836,2697,80,22,,T80-134,BUS32024-hbt34ns1-Weekday-02,80-_-1,1,1,Inbound,Lechmere Station,Broadway @ Josephine Ave - Ball Sq,37,29400,60,2700,2700,2024-08-01T08:10:00.000000,2024-08-01T08:24:00.000000,2024-08-01
63157836,2698,80,23,,T80-134,BUS32024-hbt34ns1-Weekday-02,80-_-1,1,1,Inbound,Lechmere Station,Broadway @ Cedar St,37,29400,120,2700,2700,2024-08-01T08:10:00.000000,2024-08-01T08:26:00.000000,2024-08-01
63157836,2699,80,24,mgnsq,T80-134,BUS32024-hbt34ns1-Weekday-02,80-_-1,1,1,Inbound,Lechmere Station,Broadway @ Hinckley St - Magoun Sq,37,29400,60,2700,2700,2024-08-01T08:10:00.000000,2024-08-01T08:27:00.000000,2024-08-01
63157836,12699,80,25,,T80-134,BUS32024-hbt34ns1-Weekday-02,80-_-1,1,1,Inbound,Lechmere Station,Medford St @ Broadway - Magoun Sq,37,29400,0,2700,2700,2024-08-01T08:10:00.000000,2024-08-01T08:27:00.000000,2024-08-01
63157836,23841,80,26,,T80-134,BUS32024-hbt34ns1-Weekday-02,80-_-1,1,1,Inbound,Lechmere Station,Medford St @ Glenwood Rd,37,29400,120,2700,2700,2024-08-01T08:10:00.000000,2024-08-01T08:29:00.000000,2024-08-01
63157836,2385,80,27,,T80-134,BUS32024-hbt34ns1-Weekday-02,80-_-1,1,1,Inbound,Lechmere Station,Medford St @ Central St,37,29400,60,2700,2700,2024-08-01T08:10:00.000000,2024-08-01T08:30:00.000000,2024-08-01
63157836,2386,80,28,,T80-134,BUS32024-hbt34ns1-Weekday-02,80-_-1,1,1,Inbound,Lechmere Station,Medford St @ Sycamore St,37,29400,60,2700,2700,2024-08-01T08:10:00.000000,2024-08-01T08:31:00.000000,2024-08-01
63157836,2388,80,29,mdscl,T80-134,BUS32024-hbt34ns1-Weekday-02,80-_-1,1,1,Inbound,Lechmere Station,Medford St @ School St,37,29400,60,2700,2700,2024-08-01T08:10:00.000000,2024-08-01T08:32:00.000000,2024-08-01
63157836,2389,80,30,,T80-134,BUS32024-hbt34ns1-Weekday-02,80-_-1,1,1,Inbound,Lechmere Station,Pearl St @ Skilton Ave,37,29400,60,2700,2700,2024-08-01T08:10:00.000000,2024-08-01T08:33:00.000000,2024-08-01
63157836,2390,80,31,,T80-134,BUS32024-hbt34ns1-Weekday-02,80-_-1,1,1,Inbound,Lechmere Station,Pearl St @ Walnut St,37,29400,60,2700,2700,2024-08-01T08:10:00.000000,2024-08-01T08:34:00.000000,2024-08-01
63157836,2391,80,32,,T80-134,BUS32024-hbt34ns1-Weekday-02,80-_-1,1,1,Inbound,Lechmere Station,Pearl St @ McGrath Hwy,37,29400,60,2700,2700,2024-08-01T08:10:00.000000,2024-08-01T08:35:00.000000,2024-08-01
63157836,2689,80,33,,T80-134,BUS32024-hbt34ns1-Weekday-02,80-_-1,1,1,Inbound,Lechmere Station,422 McGrath Hwy,37,29400,180,2700,300,2024-08-01T08:10:00.000000,2024-08-01T08:38:00.000000,2024-08-01
63157836,2690,80,34,,T80-134,BUS32024-hbt34ns1-Weekday-02,80-_-1,1,1,Inbound,Lechmere Station,Medford St @ Washington St,37,29400,60,2700,300,2024-08-01T08:10:00.000000,2024-08-01T08:39:00.000000,2024-08-01
63157836,2600,80,35,,T80-134,BUS32024-hbt34ns1-Weekday-02,80-_-1,1,1,Inbound,Lechmere Station,McGrath Hwy @ Medford St,37,29400,180,2700,300,2024-08-01T08:10:00.000000,2024-08-01T08:42:00.000000,2024-08-01
63157836,2601,80,36,,T80-134,BUS32024-hbt34ns1-Weekday-02,80-_-1,1,1,Inbound,Lechmere Station,McGrath Hwy @ Twin City Plaza,37,29400,240,2700,300,2024-08-01T08:10:00.000000,2024-08-01T08:46:00.000000,2024-08-01
63157836,70500,80,37,lchmr,T80-134,BUS32024-hbt34ns1-Weekday-02,80-_-1,1,1,Inbound,Lechmere Station,Lechmere,37,29400,120,2700,300,2024-08-01T08:10:00.000000,2024-08-01T08:48:00.000000,2024-08-01
63256578,5327,97,1,malst,G101-66,BUS32024-hbg34ns1-Weekday-02,97-5-1,1,1,Inbound,Wellington Station,Malden Center,22,65100,,2100,60,2024-08-01T18:05:00.000000,2024-08-01T18:05:00.000000,2024-08-01
63256578,45327,97,2,,G101-66,BUS32024-hbg34ns1-Weekday-02,97-5-1,1,1,Inbound,Wellington Station,Commercial St @ Charles St,22,65100,60,2100,2100,2024-08-01T18:05:00.000000,2024-08-01T18:06:00.000000,2024-08-01
63256578,45326,97,3,,G101-66,BUS32024-hbg34ns1-Weekday-02,97-5-1,1,1,Inbound,Wellington Station,Commercial St @ Medford St,22,65100,0,2100,2100,2024-08-01T18:05:00.000000,2024-08-01T18:06:00.000000,2024-08-01
63256578,45330,97,4,,G101-66,BUS32024-hbg34ns1-Weekday-02,97-5-1,1,1,Inbound,Wellington Station,Medford St @ Green St,22,65100,60,2100,2100,2024-08-01T18:05:00.000000,2024-08-01T18:07:00.000000,2024-08-01
63256578,44330,97,5,,G101-66,BUS32024-hbg34ns1-Weekday-02,97-5-1,1,1,Inbound,Wellington Station,Medford St @ Brackenbury St,22,65100,60,2100,2100,2024-08-01T18:05:00.000000,2024-08-01T18:08:00.000000,2024-08-01
63256578,45331,97,6,mfdmn,G101-66,BUS32024-hbg34ns1-Weekday-02,97-5-1,1,1,Inbound,Wellington Station,Medford St @ Main St,22,65100,0,2100,2100,2024-08-01T18:05:00.000000,2024-08-01T18:08:00.000000,2024-08-01
63256578,5395,97,7,,G101-66,BUS32024-hbg34ns1-Weekday-02,97-5-1,1,1,Inbound,Wellington Station,Main St @ Converse Ave,22,65100,60,2100,900,2024-08-01T18:05:00.000000,2024-08-01T18:09:00.000000,2024-08-01
63256578,5047,97,8,,G101-66,BUS32024-hbg34ns1-Weekday-02,97-5-1,1,1,Inbound,Wellington Station,Belmont St @ Main St,22,65100,60,2100,2100,2024-08-01T18:05:00.000000,2024-08-01T18:10:00.000000,2024-08-01
63256578,5048,97,9,,G101-66,BUS32024-hbg34ns1-Weekday-02,97-5-1,1,1,Inbound,Wellington Station,Belmont St @ Kinsman St,22,65100,0,2100,2100,2024-08-01T18:05:00.000000,2024-08-01T18:10:00.000000,2024-08-01
63256578,5049,97,10,,G101-66,BUS32024-hbg34ns1-Weekday-02,97-5-1,1,1,Inbound,Wellington Station,Hancock St @ Belmont St,22,65100,60,2100,2100,2024-08-01T18:05:00.000000,2024-08-01T18:11:00.000000,2024-08-01
63256578,5050,97,11,,G101-66,BUS32024-hbg34ns1-Weekday-02,97-5-1,1,1,Inbound,Wellington Station,Hancock St @ Tappan St,22,65100,60,2100,2100,2024-08-01T18:05:00.000000,2024-08-01T18:12:00.000000,2024-08-01
63256578,5051,97,12,,G101-66,BUS32024-hbg34ns1-Weekday-02,97-5-1,1,1,Inbound,Wellington Station,Hancock St @ Dean St,22,65100,60,2100,2100,2024-08-01T18:05:00.000000,2024-08-01T18:13:00.000000,2024-08-01
63256578,15492,97,13,,G101-66,BUS32024-hbg34ns1-Weekday-02,97-5-1,1,1,Inbound,Wellington Station,Broadway @ Maple Ave,22,65100,120,2100,2100,2024-08-01T18:05:00.000000,2024-08-01T18:15:00.000000,2024-08-01
63256578,5495,97,14,,G101-66,BUS32024-hbg34ns1-Weekday-02,97-5-1,1,1,Inbound,Wellington Station,Broadway @ Church St,22,65100,60,2100,2100,2024-08-01T18:05:00.000000,2024-08-01T18:16:00.000000,2024-08-01
63256578,5496,97,15,evrtc,G101-66,BUS32024-hbg34ns1-Weekday-02,97-5-1,1,1,Inbound,Wellington Station,Broadway @ Norwood St,22,65100,60,2100,540,2024-08-01T18:05:00.000000,2024-08-01T18:17:00.000000,2024-08-01
63256578,5559,97,16,,G101-66,BUS32024-hbg34ns1-Weekday-02,97-5-1,1,1,Inbound,Wellington Station,Broadway opp Second St,22,65100,0,2100,540,2024-08-01T18:05:00.000000,2024-08-01T18:17:00.000000,2024-08-01
63256578,5560,97,17,sweet,G101-66,BUS32024-hbg34ns1-Weekday-02,97-5-1,1,1,Inbound,Wellington Station,Broadway @ Gladstone St,22,65100,60,2100,540,2024-08-01T18:05:00.000000,2024-08-01T18:18:00.000000,2024-08-01
63256578,5561,97,18,,G101-66,BUS32024-hbg34ns1-Weekday-02,97-5-1,1,1,Inbound,Wellington Station,Santilli Circle,22,65100,180,2100,180,2024-08-01T18:05:00.000000,2024-08-01T18:21:00.000000,2024-08-01
63256578,55631,97,19,,G101-66,BUS32024-hbg34ns1-Weekday-02,97-5-1,1,1,Inbound,Wellington Station,Gateway Center opp Texas Roadhouse,22,65100,120,2100,2100,2024-08-01T18:05:00.000000,2024-08-01T18:23:00.000000,2024-08-01
63256578,55632,97,20,,G101-66,BUS32024-hbg34ns1-Weekday-02,97-5-1,1,1,Inbound,Wellington Station,Gateway Center @ Target,22,65100,60,2100,2100,2024-08-01T18:05:00.000000,2024-08-01T18:24:00.000000,2024-08-01
63256578,6569,97,21,,G101-66,BUS32024-hbg34ns1-Weekday-02,97-5-1,1,1,Inbound,Wellington Station,Corporation Way,22,65100,360,2100,360,2024-08-01T18:05:00.000000,2024-08-01T18:30:00.000000,2024-08-01
63256578,5271,97,22,welst,G101-66,BUS32024-hbg34ns1-Weekday-02,97-5-1,1,1,Inbound,Wellington Station,Wellington Station Busway,22,65100,60,2100,240,2024-08-01T18:05:00.000000,2024-08-01T18:31:00.000000,2024-08-01
63256596,53270,104,1,malst,G109-113,BUS32024-hbg34ns1-Weekday-02,104-_-1,1,1,Inbound,Sullivan Square Station,Malden Center,29,74880,,1080,1080,2024-08-01T20:48:00.000000,2024-08-01T20:48:00.000000,2024-08-01
63256596,5289,104,2,,G109-113,BUS32024-hbg34ns1-Weekday-02,104-_-1,1,1,Inbound,Sullivan Square Station,Centre St @ Stop & Shop,29,74880,60,1080,1080,2024-08-01T20:48:00.000000,2024-08-01T20:49:00.000000,2024-08-01
63256596,5342,104,3,,G109-113,BUS32024-hbg34ns1-Weekday-02,104-_-1,1,1,Inbound,Sullivan Square Station,Main St opp Pleasant St,29,74880,120,1080,1080,2024-08-01T20:48:00.000000,2024-08-01T20:51:00.000000,2024-08-01
63256596,5343,104,4,,G109-113,BUS32024-hbg34ns1-Weekday-02,104-_-1,1,1,Inbound,Sullivan Square Station,Ferry St @ Irving St,29,74880,0,1080,1080,2024-08-01T20:48:00.000000,2024-08-01T20:51:00.000000,2024-08-01
63256596,5344,104,5,,G109-113,BUS32024-hbg34ns1-Weekday-02,104-_-1,1,1,Inbound,Sullivan Square Station,Ferry St @ Eastern Ave,29,74880,60,1080,1080,2024-08-01T20:48:00.000000,2024-08-01T20:52:00.000000,2024-08-01
63256596,5345,104,6,,G109-113,BUS32024-hbg34ns1-Weekday-02,104-_-1,1,1,Inbound,Sullivan Square Station,Ferry St opp Clayton St,29,74880,60,1080,1080,2024-08-01T20:48:00.000000,2024-08-01T20:53:00.000000,2024-08-01
63256596,5347,104,7,fercr,G109-113,BUS32024-hbg34ns1-Weekday-02,104-_-1,1,1,Inbound,Sullivan Square Station,Ferry St @ Cross St,29,74880,60,1080,1080,2024-08-01T20:48:00.000000,2024-08-01T20:54:00.000000,2024-08-01
63256596,5348,104,8,,G109-113,BUS32024-hbg34ns1-Weekday-02,104-_-1,1,1,Inbound,Sullivan Square Station,Ferry St @ Winthrop St,29,74880,60,1080,1080,2024-08-01T20:48:00.000000,2024-08-01T20:55:00.000000,2024-08-01
63256596,5349,104,9,,G109-113,BUS32024-hbg34ns1-Weekday-02,104-_-1,1,1,Inbound,Sullivan Square Station,Ferry St @ Belmont St,29,74880,60,1080,1080,2024-08-01T20:48:00.000000,2024-08-01T20:56:00.000000,2024-08-01
63256596,5350,104,10,,G109-113,BUS32024-hbg34ns1-Weekday-02,104-_-1,1,1,Inbound,Sullivan Square Station,Ferry St @ Bennett St,29,74880,0,1080,1080,2024-08-01T20:48:00.000000,2024-08-01T20:56:00.000000,2024-08-01
63256596,5351,104,11,,G109-113,BUS32024-hbg34ns1-Weekday-02,104-_-1,1,1,Inbound,Sullivan Square Station,Ferry St @ Central Ave,29,74880,60,1080,1080,2024-08-01T20:48:00.000000,2024-08-01T20:57:00.000000,2024-08-01
63256596,5352,104,12,,G109-113,BUS32024-hbg34ns1-Weekday-02,104-_-1,1,1,Inbound,Sullivan Square Station,Ferry St @ Glendale St,29,74880,60,1080,1080,2024-08-01T20:48:00.000000,2024-08-01T20:58:00.000000,2024-08-01
63256596,5353,104,13,,G109-113,BUS32024-hbg34ns1-Weekday-02,104-_-1,1,1,Inbound,Sullivan Square Station,Ferry St @ Walnut St - Glendale Towers,29,74880,0,1080,1080,2024-08-01T20:48:00.000000,2024-08-01T20:58:00.000000,2024-08-01
63256596,5354,104,14,glndl,G109-113,BUS32024-hbg34ns1-Weekday-02,104-_-1,1,1,Inbound,Sullivan Square Station,Ferry St @ Broadway,29,74880,60,1080,1080,2024-08-01T20:48:00.000000,2024-08-01T20:59:00.000000,2024-08-01
63256596,5490,104,15,,G109-113,BUS32024-hbg34ns1-Weekday-02,104-_-1,1,1,Inbound,Sullivan Square Station,Broadway @ Raymond St,29,74880,60,1080,120,2024-08-01T20:48:00.000000,2024-08-01T21:00:00.000000,2024-08-01
63256596,15492,104,16,,G109-113,BUS32024-hbg34ns1-Weekday-02,104-_-1,1,1,Inbound,Sullivan Square Station,Broadway @ Maple Ave,29,74880,60,1080,120,2024-08-01T20:48:00.000000,2024-08-01T21:01:00.000000,2024-08-01
63256596,5495,104,17,,G109-113,BUS32024-hbg34ns1-Weekday-02,104-_-1,1,1,Inbound,Sullivan Square Station,Broadway @ Church St,29,74880,60,1080,120,2024-08-01T20:48:00.000000,2024-08-01T21:02:00.000000,2024-08-01
63256596,5496,104,18,evrtc,G109-113,BUS32024-hbg34ns1-Weekday-02,104-_-1,1,1,Inbound,Sullivan Square Station,Broadway @ Norwood St,29,74880,0,1080,120,2024-08-01T20:48:00.000000,2024-08-01T21:02:00.000000,2024-08-01
63256596,5559,104,19,,G109-113,BUS32024-hbg34ns1-Weekday-02,104-_-1,1,1,Inbound,Sullivan Square Station,Broadway opp Second St,29,74880,60,1080,120,2024-08-01T20:48:00.000000,2024-08-01T21:03:00.000000,2024-08-01
63256596,5560,104,20,sweet,G109-113,BUS32024-hbg34ns1-Weekday-02,104-_-1,1,1,Inbound,Sullivan Square Station,Broadway @ Gladstone St,29,74880,120,1080,120,2024-08-01T20:48:00.000000,2024-08-01T21:05:00.000000,2024-08-01
63256596,5497,104,21,,G109-113,BUS32024-hbg34ns1-Weekday-02,104-_-1,1,1,Inbound,Sullivan Square Station,Broadway @ Bowdoin St,29,74880,120,1080,120,2024-08-01T20:48:00.000000,2024-08-01T21:07:00.000000,2024-08-01
63256596,5498,104,22,,G109-113,BUS32024-hbg34ns1-Weekday-02,104-_-1,1,1,Inbound,Sullivan Square Station,Broadway opp Beacham St,29,74880,0,1080,120,2024-08-01T20:48:00.000000,2024-08-01T21:07:00.000000,2024-08-01
63256596,5499,104,23,,G109-113,BUS32024-hbg34ns1-Weekday-02,104-_-1,1,1,Inbound,Sullivan Square Station,Broadway opp Thorndike St,29,74880,0,1080,120,2024-08-01T20:48:00.000000,2024-08-01T21:07:00.000000,2024-08-01
63256596,5500,104,24,,G109-113,BUS32024-hbg34ns1-Weekday-02,104-_-1,1,1,Inbound,Sullivan Square Station,Broadway @ Horizon Way,29,74880,60,1080,120,2024-08-01T20:48:00.000000,2024-08-01T21:08:00.000000,2024-08-01
63256596,5501,104,25,,G109-113,BUS32024-hbg34ns1-Weekday-02,104-_-1,1,1,Inbound,Sullivan Square Station,Opp 173 Alford St,29,74880,60,1080,120,2024-08-01T20:48:00.000000,2024-08-01T21:09:00.000000,2024-08-01
63256596,55011,104,26,,G109-113,BUS32024-hbg34ns1-Weekday-02,104-_-1,1,1,Inbound,Sullivan Square Station,Alford St @ MWRA Pump Station,29,74880,0,1080,120,2024-08-01T20:48:00.000000,2024-08-01T21:09:00.000000,2024-08-01
63256596,55012,104,27,,G109-113,BUS32024-hbg34ns1-Weekday-02,104-_-1,1,1,Inbound,Sullivan Square Station,Alford St @ MBTA Charlestown Garage,29,74880,60,1080,120,2024-08-01T20:48:00.000000,2024-08-01T21:10:00.000000,2024-08-01
63256596,5502,104,28,,G109-113,BUS32024-hbg34ns1-Weekday-02,104-_-1,1,1,Inbound,Sullivan Square Station,Alford St @ West St,29,74880,60,1080,120,2024-08-01T20:48:00.000000,2024-08-01T21:11:00.000000,2024-08-01
63256596,29001,104,29,sull,G109-113,BUS32024-hbg34ns1-Weekday-02,104-_-1,1,1,Inbound,Sullivan Square Station,Sullivan Square,29,74880,60,1080,120,2024-08-01T20:48:00.000000,2024-08-01T21:12:00.000000,2024-08-01
63256882,29011,89,1,sull,G89-5,BUS32024-hbg34ns1-Weekday-02,89-2-0,1,0,Outbound,Clarendon Hill or Davis Station,Sullivan Square,21,64620,,420,420,2024-08-01T17:57:00.000000,2024-08-01T17:57:00.000000,2024-08-01
63256882,2718,89,2,,G89-5,BUS32024-hbg34ns1-Weekday-02,89-2-0,1,0,Outbound,Clarendon Hill or Davis Station,Broadway @ Austin St,21,64620,180,360,360,2024-08-01T17:57:00.000000,2024-08-01T18:00:00.000000,2024-08-01
63256882,2719,89,3,,G89-5,BUS32024-hbg34ns1-Weekday-02,89-2-0,1,0,Outbound,Clarendon Hill or Davis Station,Broadway @ Illinois Ave,21,64620,60,420,420,2024-08-01T17:57:00.000000,2024-08-01T18:01:00.000000,2024-08-01
63256882,2721,89,4,,G89-5,BUS32024-hbg34ns1-Weekday-02,89-2-0,1,0,Outbound,Clarendon Hill or Davis Station,Broadway @ Cross St,21,64620,60,420,420,2024-08-01T17:57:00.000000,2024-08-01T18:02:00.000000,2024-08-01
63256882,2723,89,5,,G89-5,BUS32024-hbg34ns1-Weekday-02,89-2-0,1,0,Outbound,Clarendon Hill or Davis Station,Broadway @ Fellsway W,21,64620,60,360,360,2024-08-01T17:57:00.000000,2024-08-01T18:03:00.000000,2024-08-01
63256882,2725,89,6,,G89-5,BUS32024-hbg34ns1-Weekday-02,89-2-0,1,0,Outbound,Clarendon Hill or Davis Station,Broadway @ Temple St,21,64620,60,360,360,2024-08-01T17:57:00.000000,2024-08-01T18:04:00.000000,2024-08-01
63256882,2726,89,7,,G89-5,BUS32024-hbg34ns1-Weekday-02,89-2-0,1,0,Outbound,Clarendon Hill or Davis Station,Broadway @ Winter Hill Plaza,21,64620,60,360,360,2024-08-01T17:57:00.000000,2024-08-01T18:05:00.000000,2024-08-01
63256882,2729,89,8,whill,G89-5,BUS32024-hbg34ns1-Weekday-02,89-2-0,1,0,Outbound,Clarendon Hill or Davis Station,Broadway @ Main St,21,64620,60,360,360,2024-08-01T17:57:00.000000,2024-08-01T18:06:00.000000,2024-08-01
63256882,2731,89,9,,G89-5,BUS32024-hbg34ns1-Weekday-02,89-2-0,1,0,Outbound,Clarendon Hill or Davis Station,Broadway opp Glenwood Rd,21,64620,60,360,360,2024-08-01T17:57:00.000000,2024-08-01T18:07:00.000000,2024-08-01
63256882,2733,89,10,,G89-5,BUS32024-hbg34ns1-Weekday-02,89-2-0,1,0,Outbound,Clarendon Hill or Davis Station,Broadway @ Medford St - Magoun Sq,21,64620,120,360,360,2024-08-01T17:57:00.000000,2024-08-01T18:09:00.000000,2024-08-01
63256882,2734,89,11,,G89-5,BUS32024-hbg34ns1-Weekday-02,89-2-0,1,0,Outbound,Clarendon Hill or Davis Station,Broadway @ William St,21,64620,0,360,360,2024-08-01T17:57:00.000000,2024-08-01T18:09:00.000000,2024-08-01
63256882,2735,89,12,,G89-5,BUS32024-hbg34ns1-Weekday-02,89-2-0,1,0,Outbound,Clarendon Hill or Davis Station,Broadway @ Alfred St,21,64620,60,360,360,2024-08-01T17:57:00.000000,2024-08-01T18:10:00.000000,2024-08-01
63256882,2736,89,13,,G89-5,BUS32024-hbg34ns1-Weekday-02,89-2-0,1,0,Outbound,Clarendon Hill or Davis Station,Broadway @ Boston Ave - Ball Sq,21,64620,60,360,360,2024-08-01T17:57:00.000000,2024-08-01T18:11:00.000000,2024-08-01
63256882,2737,89,14,,G89-5,BUS32024-hbg34ns1-Weekday-02,89-2-0,1,0,Outbound,Clarendon Hill or Davis Station,Broadway @ Pearson Rd,21,64620,60,360,360,2024-08-01T17:57:00.000000,2024-08-01T18:12:00.000000,2024-08-01
63256882,2738,89,15,powdr,G89-5,BUS32024-hbg34ns1-Weekday-02,89-2-0,1,0,Outbound,Clarendon Hill or Davis Station,Broadway @ Warner St - Powder House Sq,21,64620,60,360,360,2024-08-01T17:57:00.000000,2024-08-01T18:13:00.000000,2024-08-01
63256882,5012,89,16,,G89-5,BUS32024-hbg34ns1-Weekday-02,89-2-0,1,0,Outbound,Clarendon Hill or Davis Station,College Ave @ Broadway,21,64620,60,1080,1080,2024-08-01T17:57:00.000000,2024-08-01T18:14:00.000000,2024-08-01
63256882,5014,89,17,,G89-5,BUS32024-hbg34ns1-Weekday-02,89-2-0,1,0,Outbound,Clarendon Hill or Davis Station,College Ave @ William St,21,64620,60,1080,1080,2024-08-01T17:57:00.000000,2024-08-01T18:15:00.000000,2024-08-01
63256882,5015,89,18,,G89-5,BUS32024-hbg34ns1-Weekday-02,89-2-0,1,0,Outbound,Clarendon Hill or Davis Station,College Ave @ Highland Ave,21,64620,60,1080,1080,2024-08-01T17:57:00.000000,2024-08-01T18:16:00.000000,2024-08-01
63256882,2582,89,19,,G89-5,BUS32024-hbg34ns1-Weekday-02,89-2-0,1,0,Outbound,Clarendon Hill or Davis Station,Elm St @ Chester St,21,64620,60,1080,1080,2024-08-01T17:57:00.000000,2024-08-01T18:17:00.000000,2024-08-01
63256882,2628,89,20,,G89-5,BUS32024-hbg34ns1-Weekday-02,89-2-0,1,0,Outbound,Clarendon Hill or Davis Station,Grove St @ Highland Ave,21,64620,120,1140,1140,2024-08-01T17:57:00.000000,2024-08-01T18:19:00.000000,2024-08-01
63256882,5104,89,21,davis,G89-5,BUS32024-hbg34ns1-Weekday-02,89-2-0,1,0,Outbound,Clarendon Hill or Davis Station,Davis,21,64620,60,1140,1140,2024-08-01T17:57:00.000000,2024-08-01T18:20:00.000000,2024-08-01
63361157,1618,40,1,gtown,B40-149,BUS32024-hbb34ns1-Weekday-02,40-2-1,1,1,Inbound,Forest Hills Station,84 Georgetowne Pl,32,20160,,,,2024-08-01T05:36:00.000000,2024-08-01T05:36:00.000000,2024-08-01
63361157,11618,40,2,,B40-149,BUS32024-hbb34ns1-Weekday-02,40-2-1,1,1,Inbound,Forest Hills Station,Georgetowne Dr @ Georgetowne Pl,32,20160,60,,,2024-08-01T05:36:00.000000,2024-08-01T05:37:00.000000,2024-08-01
63361157,6523,40,3,,B40-149,BUS32024-hbb34ns1-Weekday-02,40-2-1,1,1,Inbound,Forest Hills Station,Alwin St @ Dedham Pkwy,32,20160,0,,,2024-08-01T05:36:00.000000,2024-08-01T05:37:00.000000,2024-08-01
63361157,6524,40,4,,B40-149,BUS32024-hbb34ns1-Weekday-02,40-2-1,1,1,Inbound,Forest Hills Station,Alwin St @ Leighton Rd,32,20160,60,,,2024-08-01T05:36:00.000000,2024-08-01T05:38:00.000000,2024-08-01
63361157,6526,40,5,,B40-149,BUS32024-hbb34ns1-Weekday-02,40-2-1,1,1,Inbound,Forest Hills Station,Alwin St @ Turtle Pond Pkwy,32,20160,0,,,2024-08-01T05:36:00.000000,2024-08-01T05:38:00.000000,2024-08-01
63361157,6522,40,6,,B40-149,BUS32024-hbb34ns1-Weekday-02,40-2-1,1,1,Inbound,Forest Hills Station,Dedham Pkwy @ Georgetowne Dr,32,20160,120,,,2024-08-01T05:36:00.000000,2024-08-01T05:40:00.000000,2024-08-01
63361157,1616,40,7,,B40-149,BUS32024-hbb34ns1-Weekday-02,40-2-1,1,1,Inbound,Forest Hills Station,Margaretta Dr @ Crown Point Dr,32,20160,60,,,2024-08-01T05:36:00.000000,2024-08-01T05:41:00.000000,2024-08-01
63361157,1617,40,8,,B40-149,BUS32024-hbb34ns1-Weekday-02,40-2-1,1,1,Inbound,Forest Hills Station,Opp 67 Crown Point Dr,32,20160,120,,,2024-08-01T05:36:00.000000,2024-08-01T05:43:00.000000,2024-08-01
63361157,1620,40,9,,B40-149,BUS32024-hbb34ns1-Weekday-02,40-2-1,1,1,Inbound,Forest Hills Station,Georgetowne Dr opp Margaretta Dr,32,20160,0,,,2024-08-01T05:36:00.000000,2024-08-01T05:43:00.000000,2024-08-01
63361157,1621,40,10,,B40-149,BUS32024-hbb34ns1-Weekday-02,40-2-1,1,1,Inbound,Forest Hills Station,W Boundary Rd @ Georgetowne Dr,32,20160,0,,,2024-08-01T05:36:00.000000,2024-08-01T05:43:00.000000,2024-08-01
63361157,1623,40,11,,B40-149,BUS32024-hbb34ns1-Weekday-02,40-2-1,1,1,Inbound,Forest Hills Station,W Boundary Rd @ Cedarcrest Rd,32,20160,60,,,2024-08-01T05:36:00.000000,2024-08-01T05:44:00.000000,2024-08-01
63361157,625,40,12,wawbw,B40-149,BUS32024-hbb34ns1-Weekday-02,40-2-1,1,1,Inbound,Forest Hills Station,Washington St @ W Boundary Rd,32,20160,120,,600,2024-08-01T05:36:00.000000,2024-08-01T05:46:00.000000,2024-08-01
63361157,10625,40,13,,B40-149,BUS32024-hbb34ns1-Weekday-02,40-2-1,1,1,Inbound,Forest Hills Station,Washington St opp Heron St,32,20160,0,,600,2024-08-01T05:36:00.000000,2024-08-01T05:46:00.000000,2024-08-01
63361157,626,40,14,,B40-149,BUS32024-hbb34ns1-Weekday-02,40-2-1,1,1,Inbound,Forest Hills Station,Washington St opp Maplewood St,32,20160,0,,540,2024-08-01T05:36:00.000000,2024-08-01T05:46:00.000000,2024-08-01
63361157,627,40,15,,B40-149,BUS32024-hbb34ns1-Weekday-02,40-2-1,1,1,Inbound,Forest Hills Station,Washington St opp Cowing St,32,20160,60,,540,2024-08-01T05:36:00.000000,2024-08-01T05:47:00.000000,2024-08-01
63361157,628,40,16,walag,B40-149,BUS32024-hbb34ns1-Weekday-02,40-2-1,1,1,Inbound,Forest Hills Station,Washington St @ Enneking Pkwy,32,20160,0,,540,2024-08-01T05:36:00.000000,2024-08-01T05:47:00.000000,2024-08-01
63361157,629,40,17,,B40-149,BUS32024-hbb34ns1-Weekday-02,40-2-1,1,1,Inbound,Forest Hills Station,Washington St opp Schubert St,32,20160,60,,480,2024-08-01T05:36:00.000000,2024-08-01T05:48:00.000000,2024-08-01
63361157,630,40,18,,B40-149,BUS32024-hbb34ns1-Weekday-02,40-2-1,1,1,Inbound,Forest Hills Station,Washington St @ Blue Ledge Dr,32,20160,60,,540,2024-08-01T05:36:00.000000,2024-08-01T05:49:00.000000,2024-08-01
63361157,631,40,19,,B40-149,BUS32024-hbb34ns1-Weekday-02,40-2-1,1,1,Inbound,Forest Hills Station,Washington St @ Beech St,32,20160,60,,540,2024-08-01T05:36:00.000000,2024-08-01T05:50:00.000000,2024-08-01
63361157,632,40,20,,B40-149,BUS32024-hbb34ns1-Weekday-02,40-2-1,1,1,Inbound,Forest Hills Station,Washington St @ Cornell St,32,20160,0,,480,2024-08-01T05:36:00.000000,2024-08-01T05:50:00.000000,2024-08-01
63361157,633,40,21,wamet,B40-149,BUS32024-hbb34ns1-Weekday-02,40-2-1,1,1,Inbound,Forest Hills Station,Washington St @ Metropolitan Ave,32,20160,60,,480,2024-08-01T05:36:00.000000,2024-08-01T05:51:00.000000,2024-08-01
63361157,10633,40,22,,B40-149,BUS32024-hbb34ns1-Weekday-02,40-2-1,1,1,Inbound,Forest Hills Station,Washington St @ Rosecliff St,32,20160,0,,480,2024-08-01T05:36:00.000000,2024-08-01T05:51:00.000000,2024-08-01
63361157,634,40,23,,B40-149,BUS32024-hbb34ns1-Weekday-02,40-2-1,1,1,Inbound,Forest Hills Station,Washington St @ Albano St,32,20160,60,,480,2024-08-01T05:36:00.000000,2024-08-01T05:52:00.000000,2024-08-01
63361157,635,40,24,,B40-149,BUS32024-hbb34ns1-Weekday-02,40-2-1,1,1,Inbound,Forest Hills Station,Washington St @ Poplar St,32,20160,60,,480,2024-08-01T05:36:00.000000,2024-08-01T05:53:00.000000,2024-08-01
63361157,636,40,25,rossq,B40-149,BUS32024-hbb34ns1-Weekday-02,40-2-1,1,1,Inbound,Forest Hills Station,Washington St @ Cummins Hwy,32,20160,60,,180,2024-08-01T05:36:00.000000,2024-08-01T05:54:00.000000,2024-08-01
63361157,637,40,26,,B40-149,BUS32024-hbb34ns1-Weekday-02,40-2-1,1,1,Inbound,Forest Hills Station,Washington St @ Firth Rd,32,20160,60,,180,2024-08-01T05:36:00.000000,2024-08-01T05:55:00.000000,2024-08-01
63361157,638,40,27,,B40-149,BUS32024-hbb34ns1-Weekday-02,40-2-1,1,1,Inbound,Forest Hills Station,Washington St @ Granfield Ave,32,20160,60,,180,2024-08-01T05:36:00.000000,2024-08-01T05:56:00.000000,2024-08-01
63361157,639,40,28,,B40-149,BUS32024-hbb34ns1-Weekday-02,40-2-1,1,1,Inbound,Forest Hills Station,Washington St @ Whipple Ave,32,20160,60,,180,2024-08-01T05:36:00.000000,2024-08-01T05:57:00.000000,2024-08-01
63361157,640,40,29,,B40-149,BUS32024-hbb34ns1-Weekday-02,40-2-1,1,1,Inbound,Forest Hills Station,Washington St @ Archdale Rd,32,20160,0,,180,2024-08-01T05:36:00.000000,2024-08-01T05:57:00.000000,2024-08-01
63361157,641,40,30,,B40-149,BUS32024-hbb34ns1-Weekday-02,40-2-1,1,1,Inbound,Forest Hills Station,Washington St @ Aldwin Rd,32,20160,60,,180,2024-08-01T05:36:00.000000,2024-08-01T05:58:00.000000,2024-08-01
63361157,642,40,31,,B40-149,BUS32024-hbb34ns1-Weekday-02,40-2-1,1,1,Inbound,Forest Hills Station,Washington St @ Tollgate Way,32,20160,60,,180,2024-08-01T05:36:00.000000,2024-08-01T05:59:00.000000,2024-08-01
63361157,10642,40,32,fhill,B40-149,BUS32024-hbb34ns1-Weekday-02,40-2-1,1,1,Inbound,Forest Hills Station,Forest Hills,32,20160,120,,180,2024-08-01T05:36:00.000000,2024-08-01T06:01:00.000000,2024-08-01
63361458,18511,29,1,matpn,B29-40,BUS32024-hbb34ns1-Weekday-02,29-5-1,1,1,Inbound,Jackson Square Station,Mattapan,28,83100,,3120,3120,2024-08-01T23:05:00.000000,2024-08-01T23:05:00.000000,2024-08-01
63361458,1722,29,2,,B29-40,BUS32024-hbb34ns1-Weekday-02,29-5-1,1,1,Inbound,Jackson Square Station,1624 Blue Hill Ave @ Mattapan Sq,28,83100,0,3120,3120,2024-08-01T23:05:00.000000,2024-08-01T23:05:00.000000,2024-08-01
63361458,1723,29,3,,B29-40,BUS32024-hbb34ns1-Weekday-02,29-5-1,1,1,Inbound,Jackson Square Station,Blue Hill Ave @ Babson St,28,83100,60,3120,3120,2024-08-01T23:05:00.000000,2024-08-01T23:06:00.000000,2024-08-01
63361458,1724,29,4,,B29-40,BUS32024-hbb34ns1-Weekday-02,29-5-1,1,1,Inbound,Jackson Square Station,Blue Hill Ave opp Woodhaven St,28,83100,0,3120,3120,2024-08-01T23:05:00.000000,2024-08-01T23:06:00.000000,2024-08-01
63361458,1725,29,5,,B29-40,BUS32024-hbb34ns1-Weekday-02,29-5-1,1,1,Inbound,Jackson Square Station,1458 Blue Hill Ave opp Almont St,28,83100,0,3120,3120,2024-08-01T23:05:00.000000,2024-08-01T23:06:00.000000,2024-08-01
63361458,1726,29,6,,B29-40,BUS32024-hbb34ns1-Weekday-02,29-5-1,1,1,Inbound,Jackson Square Station,Blue Hill Ave @ Mattapan Library,28,83100,60,3120,3120,2024-08-01T23:05:00.000000,2024-08-01T23:07:00.000000,2024-08-01
63361458,1728,29,7,wellh,B29-40,BUS32024-hbb34ns1-Weekday-02,29-5-1,1,1,Inbound,Jackson Square Station,Blue Hill Ave @ Fessenden St,28,83100,0,3120,3120,2024-08-01T23:05:00.000000,2024-08-01T23:07:00.000000,2024-08-01
63361458,1730,29,8,,B29-40,BUS32024-hbb34ns1-Weekday-02,29-5-1,1,1,Inbound,Jackson Square Station,Blue Hill Ave @ Woolson St,28,83100,60,3120,3120,2024-08-01T23:05:00.000000,2024-08-01T23:08:00.000000,2024-08-01
63361458,1731,29,9,mortn,B29-40,BUS32024-hbb34ns1-Weekday-02,29-5-1,1,1,Inbound,Jackson Square Station,Blue Hill Ave @ Morton St,28,83100,60,3120,3120,2024-08-01T23:05:00.000000,2024-08-01T23:09:00.000000,2024-08-01
63361458,1732,29,10,,B29-40,BUS32024-hbb34ns1-Weekday-02,29-5-1,1,1,Inbound,Jackson Square Station,Blue Hill Ave @ Woodrow Ave,28,83100,0,3120,3120,2024-08-01T23:05:00.000000,2024-08-01T23:09:00.000000,2024-08-01
63361458,1733,29,11,,B29-40,BUS32024-hbb34ns1-Weekday-02,29-5-1,1,1,Inbound,Jackson Square Station,Blue Hill Ave @ Arbutus St,28,83100,60,3120,3120,2024-08-01T23:05:00.000000,2024-08-01T23:10:00.000000,2024-08-01
63361458,1734,29,12,,B29-40,BUS32024-hbb34ns1-Weekday-02,29-5-1,1,1,Inbound,Jackson Square Station,Blue Hill Ave @ Callender St,28,83100,0,3120,3120,2024-08-01T23:05:00.000000,2024-08-01T23:10:00.000000,2024-08-01
63361458,1735,29,13,,B29-40,BUS32024-hbb34ns1-Weekday-02,29-5-1,1,1,Inbound,Jackson Square Station,Blue Hill Ave @ Westview St,28,83100,60,3120,3120,2024-08-01T23:05:00.000000,2024-08-01T23:11:00.000000,2024-08-01
63361458,1736,29,14,,B29-40,BUS32024-hbb34ns1-Weekday-02,29-5-1,1,1,Inbound,Jackson Square Station,Blue Hill Ave opp Health Ctr,28,83100,60,3120,3120,2024-08-01T23:05:00.000000,2024-08-01T23:12:00.000000,2024-08-01
63361458,1737,29,15,bltal,B29-40,BUS32024-hbb34ns1-Weekday-02,29-5-1,1,1,Inbound,Jackson Square Station,Blue Hill Ave @ Harvard St,28,83100,0,3120,3120,2024-08-01T23:05:00.000000,2024-08-01T23:12:00.000000,2024-08-01
63361458,381,29,16,,B29-40,BUS32024-hbb34ns1-Weekday-02,29-5-1,1,1,Inbound,Jackson Square Station,Blue Hill Ave @ Wales St,28,83100,60,3120,3120,2024-08-01T23:05:00.000000,2024-08-01T23:13:00.000000,2024-08-01
63361458,382,29,17,,B29-40,BUS32024-hbb34ns1-Weekday-02,29-5-1,1,1,Inbound,Jackson Square Station,Blue Hill Ave @ Charlotte St,28,83100,60,3120,3120,2024-08-01T23:05:00.000000,2024-08-01T23:14:00.000000,2024-08-01
63361458,383,29,18,frnpk,B29-40,BUS32024-hbb34ns1-Weekday-02,29-5-1,1,1,Inbound,Jackson Square Station,Blue Hill Ave @ Ellington St,28,83100,60,3120,3120,2024-08-01T23:05:00.000000,2024-08-01T23:15:00.000000,2024-08-01
63361458,9448,29,19,,B29-40,BUS32024-hbb34ns1-Weekday-02,29-5-1,1,1,Inbound,Jackson Square Station,Seaver St @ Blue Hill Ave,28,83100,60,3120,3120,2024-08-01T23:05:00.000000,2024-08-01T23:16:00.000000,2024-08-01
63361458,1739,29,20,,B29-40,BUS32024-hbb34ns1-Weekday-02,29-5-1,1,1,Inbound,Jackson Square Station,Seaver St @ Maple St,28,83100,60,3120,3120,2024-08-01T23:05:00.000000,2024-08-01T23:17:00.000000,2024-08-01
63361458,1740,29,21,,B29-40,BUS32024-hbb34ns1-Weekday-02,29-5-1,1,1,Inbound,Jackson Square Station,Seaver St @ Elm Hill Ave,28,83100,0,3120,3120,2024-08-01T23:05:00.000000,2024-08-01T23:17:00.000000,2024-08-01
63361458,1741,29,22,svrhm,B29-40,BUS32024-hbb34ns1-Weekday-02,29-5-1,1,1,Inbound,Jackson Square Station,Seaver St @ Humboldt Ave,28,83100,60,3120,3120,2024-08-01T23:05:00.000000,2024-08-01T23:18:00.000000,2024-08-01
63361458,1742,29,23,,B29-40,BUS32024-hbb34ns1-Weekday-02,29-5-1,1,1,Inbound,Jackson Square Station,Seaver St @ Harold St,28,83100,60,3120,1200,2024-08-01T23:05:00.000000,2024-08-01T23:19:00.000000,2024-08-01
63361458,1743,29,24,,B29-40,BUS32024-hbb34ns1-Weekday-02,29-5-1,1,1,Inbound,Jackson Square Station,Columbus Ave @ Walnut Ave,28,83100,60,3120,1200,2024-08-01T23:05:00.000000,2024-08-01T23:20:00.000000,2024-08-01
63361458,1188,29,25,egles,B29-40,BUS32024-hbb34ns1-Weekday-02,29-5-1,1,1,Inbound,Jackson Square Station,Columbus Ave opp Weld Ave - Egleston Sq,28,83100,60,3120,1200,2024-08-01T23:05:00.000000,2024-08-01T23:21:00.000000,2024-08-01
63361458,1215,29,26,,B29-40,BUS32024-hbb34ns1-Weekday-02,29-5-1,1,1,Inbound,Jackson Square Station,Columbus Ave @ Bray St,28,83100,60,3120,1140,2024-08-01T23:05:00.000000,2024-08-01T23:22:00.000000,2024-08-01
63361458,1216,29,27,,B29-40,BUS32024-hbb34ns1-Weekday-02,29-5-1,1,1,Inbound,Jackson Square Station,Columbus Ave @ Dimock St,28,83100,60,3120,1140,2024-08-01T23:05:00.000000,2024-08-01T23:23:00.000000,2024-08-01
63361458,11531,29,28,jasst,B29-40,BUS32024-hbb34ns1-Weekday-02,29-5-1,1,1,Inbound,Jackson Square Station,Jackson Square,28,83100,120,3120,960,2024-08-01T23:05:00.000000,2024-08-01T23:25:00.000000,2024-08-01
63362022,900,52,1,wtryd,B52-191,BUS32024-hbb34ns1-Weekday-02,52-5-0,1,0,Outbound,Dedham Mall,Water St @ Watertown Yard,55,42480,,3600,3600,2024-08-01T11:48:00.000000,2024-08-01T11:48:00.000000,2024-08-01
63362022,902,52,2,,B52-191,BUS32024-hbb34ns1-Weekday-02,52-5-0,1,0,Outbound,Dedham Mall,Galen St @ Boyd St,55,42480,120,3600,3600,2024-08-01T11:48:00.000000,2024-08-01T11:50:00.000000,2024-08-01
63362022,1900,52,3,,B52-191,BUS32024-hbb34ns1-Weekday-02,52-5-0,1,0,Outbound,Dedham Mall,Centre St @ Pearl St,55,42480,0,3600,3600,2024-08-01T11:48:00.000000,2024-08-01T11:50:00.000000,2024-08-01
63362022,903,52,4,nwcor,B52-191,BUS32024-hbb34ns1-Weekday-02,52-5-0,1,0,Outbound,Dedham Mall,Washington St @ Bacon St,55,42480,60,3600,3600,2024-08-01T11:48:00.000000,2024-08-01T11:51:00.000000,2024-08-01
63362022,8517,52,5,,B52-191,BUS32024-hbb34ns1-Weekday-02,52-5-0,1,0,Outbound,Dedham Mall,Centre St @ Church St,55,42480,60,3600,3600,2024-08-01T11:48:00.000000,2024-08-01T11:52:00.000000,2024-08-01
63362022,8518,52,6,,B52-191,BUS32024-hbb34ns1-Weekday-02,52-5-0,1,0,Outbound,Dedham Mall,Centre St @ Newtonville Ave,55,42480,60,3600,3600,2024-08-01T11:48:00.000000,2024-08-01T11:53:00.000000,2024-08-01
63362022,8519,52,7,,B52-191,BUS32024-hbb34ns1-Weekday-02,52-5-0,1,0,Outbound,Dedham Mall,Centre St @ Bellevue St,55,42480,0,3600,3600,2024-08-01T11:48:00.000000,2024-08-01T11:53:00.000000,2024-08-01
63362022,8520,52,8,,B52-191,BUS32024-hbb34ns1-Weekday-02,52-5-0,1,0,Outbound,Dedham Mall,Centre St @ Lombard St,55,42480,0,3600,3600,2024-08-01T11:48:00.000000,2024-08-01T11:53:00.000000,2024-08-01
63362022,8521,52,9,,B52-191,BUS32024-hbb34ns1-Weekday-02,52-5-0,1,0,Outbound,Dedham Mall,Centre St @ Cabot St,55,42480,60,3600,3600,2024-08-01T11:48:00.000000,2024-08-01T11:54:00.000000,2024-08-01
63362022,8522,52,10,mtalv,B52-191,BUS32024-hbb34ns1-Weekday-02,52-5-0,1,0,Outbound,Dedham Mall,785 Centre St,55,42480,0,3600,3600,2024-08-01T11:48:00.000000,2024-08-01T11:54:00.000000,2024-08-01
63362022,8523,52,11,,B52-191,BUS32024-hbb34ns1-Weekday-02,52-5-0,1,0,Outbound,Dedham Mall,Centre St @ Cotton St,55,42480,60,3600,3600,2024-08-01T11:48:00.000000,2024-08-01T11:55:00.000000,2024-08-01
63362022,8524,52,12,,B52-191,BUS32024-hbb34ns1-Weekday-02,52-5-0,1,0,Outbound,Dedham Mall,Centre St @ Mill St,55,42480,0,3600,3600,2024-08-01T11:48:00.000000,2024-08-01T11:55:00.000000,2024-08-01
63362022,8525,52,13,,B52-191,BUS32024-hbb34ns1-Weekday-02,52-5-0,1,0,Outbound,Dedham Mall,Centre St @ Ward St,55,42480,60,3600,3600,2024-08-01T11:48:00.000000,2024-08-01T11:56:00.000000,2024-08-01
63362022,8526,52,14,,B52-191,BUS32024-hbb34ns1-Weekday-02,52-5-0,1,0,Outbound,Dedham Mall,Centre St @ Commonwealth Ave,55,42480,0,3600,3600,2024-08-01T11:48:00.000000,2024-08-01T11:56:00.000000,2024-08-01
63362022,8527,52,15,,B52-191,BUS32024-hbb34ns1-Weekday-02,52-5-0,1,0,Outbound,Dedham Mall,Centre St @ Bowen St,55,42480,60,3600,3600,2024-08-01T11:48:00.000000,2024-08-01T11:57:00.000000,2024-08-01
63362022,8528,52,16,newct,B52-191,BUS32024-hbb34ns1-Weekday-02,52-5-0,1,0,Outbound,Dedham Mall,Centre St @ Beacon St,55,42480,60,3600,3600,2024-08-01T11:48:00.000000,2024-08-01T11:58:00.000000,2024-08-01
63362022,8529,52,17,,B52-191,BUS32024-hbb34ns1-Weekday-02,52-5-0,1,0,Outbound,Dedham Mall,Cypress St @ Braeland Ave,55,42480,0,3600,3600,2024-08-01T11:48:00.000000,2024-08-01T11:58:00.000000,2024-08-01
63362022,8530,52,18,,B52-191,BUS32024-hbb34ns1-Weekday-02,52-5-0,1,0,Outbound,Dedham Mall,Parker St @ Cypress St,55,42480,60,3600,3600,2024-08-01T11:48:00.000000,2024-08-01T11:59:00.000000,2024-08-01
63362022,8531,52,19,,B52-191,BUS32024-hbb34ns1-Weekday-02,52-5-0,1,0,Outbound,Dedham Mall,Parker St @ Athelstane Rd,55,42480,60,3600,3600,2024-08-01T11:48:00.000000,2024-08-01T12:00:00.000000,2024-08-01
63362022,8532,52,20,,B52-191,BUS32024-hbb34ns1-Weekday-02,52-5-0,1,0,Outbound,Dedham Mall,Parker St @ Stearns St,55,42480,0,3600,3600,2024-08-01T11:48:00.000000,2024-08-01T12:00:00.000000,2024-08-01
63362022,8533,52,21,,B52-191,BUS32024-hbb34ns1-Weekday-02,52-5-0,1,0,Outbound,Dedham Mall,Parker St @ Boylston St,55,42480,0,3600,3600,2024-08-01T11:48:00.000000,2024-08-01T12:00:00.000000,2024-08-01
63362022,8534,52,22,,B52-191,BUS32024-hbb34ns1-Weekday-02,52-5-0,1,0,Outbound,Dedham Mall,Parker St @ Parker Ave,55,42480,60,3600,3600,2024-08-01T11:48:00.000000,2024-08-01T12:01:00.000000,2024-08-01
63362022,8535,52,23,,B52-191,BUS32024-hbb34ns1-Weekday-02,52-5-0,1,0,Outbound,Dedham Mall,Parker St @ Hagen Rd,55,42480,0,3600,3600,2024-08-01T11:48:00.000000,2024-08-01T12:01:00.000000,2024-08-01
63362022,8536,52,24,,B52-191,BUS32024-hbb34ns1-Weekday-02,52-5-0,1,0,Outbound,Dedham Mall,Parker St @ Parker Rd,55,42480,60,3600,3600,2024-08-01T11:48:00.000000,2024-08-01T12:02:00.000000,2024-08-01
63362022,8537,52,25,prkwl,B52-191,BUS32024-hbb34ns1-Weekday-02,52-5-0,1,0,Outbound,Dedham Mall,Parker St opp Wheeler Rd,55,42480,0,3600,3600,2024-08-01T11:48:00.000000,2024-08-01T12:02:00.000000,2024-08-01
63362022,85371,52,26,,B52-191,BUS32024-hbb34ns1-Weekday-02,52-5-0,1,0,Outbound,Dedham Mall,Wheeler Rd @ Meadowbrook Rd,55,42480,60,3600,3600,2024-08-01T11:48:00.000000,2024-08-01T12:03:00.000000,2024-08-01
63362022,8540,52,27,,B52-191,BUS32024-hbb34ns1-Weekday-02,52-5-0,1,0,Outbound,Dedham Mall,Dedham St opp Meadowbrook Rd,55,42480,60,3600,3600,2024-08-01T11:48:00.000000,2024-08-01T12:04:00.000000,2024-08-01
63362022,8541,52,28,,B52-191,BUS32024-hbb34ns1-Weekday-02,52-5-0,1,0,Outbound,Dedham Mall,Dedham St opp Greenwood St,55,42480,0,3600,3600,2024-08-01T11:48:00.000000,2024-08-01T12:04:00.000000,2024-08-01
63362022,8542,52,29,,B52-191,BUS32024-hbb34ns1-Weekday-02,52-5-0,1,0,Outbound,Dedham Mall,Dedham St opp Arnold Rd,55,42480,60,3600,3600,2024-08-01T11:48:00.000000,2024-08-01T12:05:00.000000,2024-08-01
63362022,18542,52,30,,B52-191,BUS32024-hbb34ns1-Weekday-02,52-5-0,1,0,Outbound,Dedham Mall,Dedham St opp Rosalie Rd,55,42480,0,3600,3600,2024-08-01T11:48:00.000000,2024-08-01T12:05:00.000000,2024-08-01
63362022,8544,52,31,,B52-191,BUS32024-hbb34ns1-Weekday-02,52-5-0,1,0,Outbound,Dedham Mall,Dedham St @ Carlson Ave,55,42480,60,3600,3600,2024-08-01T11:48:00.000000,2024-08-01T12:06:00.000000,2024-08-01
63362022,8545,52,32,oak,B52-191,BUS32024-hbb34ns1-Weekday-02,52-5-0,1,0,Outbound,Dedham Mall,Dedham St @ Wiswall Rd,55,42480,0,3600,3600,2024-08-01T11:48:00.000000,2024-08-01T12:06:00.000000,2024-08-01
63362022,8546,52,33,,B52-191,BUS32024-hbb34ns1-Weekday-02,52-5-0,1,0,Outbound,Dedham Mall,Wiswall Rd @ Indian Ridge Rd,55,42480,0,3600,3600,2024-08-01T11:48:00.000000,2024-08-01T12:06:00.000000,2024-08-01
63362022,8547,52,34,,B52-191,BUS32024-hbb34ns1-Weekday-02,52-5-0,1,0,Outbound,Dedham Mall,Wiswall Rd opp McCarthy Rd,55,42480,0,3600,3600,2024-08-01T11:48:00.000000,2024-08-01T12:06:00.000000,2024-08-01
63362022,8548,52,35,,B52-191,BUS32024-hbb34ns1-Weekday-02,52-5-0,1,0,Outbound,Dedham Mall,Wiswall Rd @ O Roadway,55,42480,60,3600,3600,2024-08-01T11:48:00.000000,2024-08-01T12:07:00.000000,2024-08-01
63362022,8549,52,36,,B52-191,BUS32024-hbb34ns1-Weekday-02,52-5-0,1,0,Outbound,Dedham Mall,Wiswall Rd @ M Roadway,55,42480,0,3600,3600,2024-08-01T11:48:00.000000,2024-08-01T12:07:00.000000,2024-08-01
63362022,8550,52,37,,B52-191,BUS32024-hbb34ns1-Weekday-02,52-5-0,1,0,Outbound,Dedham Mall,Wiswall Rd @ Walsh Rd,55,42480,60,3600,3600,2024-08-01T11:48:00.000000,2024-08-01T12:08:00.000000,2024-08-01
63362022,8552,52,38,,B52-191,BUS32024-hbb34ns1-Weekday-02,52-5-0,1,0,Outbound,Dedham Mall,Sawmill Brook Pkwy @ Walsh Rd,55,42480,0,3600,3600,2024-08-01T11:48:00.000000,2024-08-01T12:08:00.000000,2024-08-01
63362022,85511,52,39,,B52-191,BUS32024-hbb34ns1-Weekday-02,52-5-0,1,0,Outbound,Dedham Mall,Sawmill Brook Pkwy @ Spiers Rd,55,42480,0,3600,3600,2024-08-01T11:48:00.000000,2024-08-01T12:08:00.000000,2024-08-01
63362022,8553,52,40,,B52-191,BUS32024-hbb34ns1-Weekday-02,52-5-0,1,0,Outbound,Dedham Mall,Sawmill Brook Pkwy @ Keller Path,55,42480,60,3600,3600,2024-08-01T11:48:00.000000,2024-08-01T12:09:00.000000,2024-08-01
63362022,8554,52,41,sbpfd,B52-191,BUS32024-hbb34ns1-Weekday-02,52-5-0,1,0,Outbound,Dedham Mall,Sawmill Brook Pkwy @ McCarthy Rd,55,42480,0,3600,3600,2024-08-01T11:48:00.000000,2024-08-01T12:09:00.000000,2024-08-01
63362022,85551,52,42,,B52-191,BUS32024-hbb34ns1-Weekday-02,52-5-0,1,0,Outbound,Dedham Mall,Fredette Rd @ Spiers Rd,55,42480,60,3600,3600,2024-08-01T11:48:00.000000,2024-08-01T12:10:00.000000,2024-08-01
63362022,8556,52,43,,B52-191,BUS32024-hbb34ns1-Weekday-02,52-5-0,1,0,Outbound,Dedham Mall,Spiers Rd @ Dedham St,55,42480,0,3600,3600,2024-08-01T11:48:00.000000,2024-08-01T12:10:00.000000,2024-08-01
63362022,85562,52,44,,B52-191,BUS32024-hbb34ns1-Weekday-02,52-5-0,1,0,Outbound,Dedham Mall,Baker St @ VFW Pkwy,55,42480,180,3600,3600,2024-08-01T11:48:00.000000,2024-08-01T12:13:00.000000,2024-08-01
63362022,85563,52,45,,B52-191,BUS32024-hbb34ns1-Weekday-02,52-5-0,1,0,Outbound,Dedham Mall,Baker St @ VFW Pkwy,55,42480,0,3600,3600,2024-08-01T11:48:00.000000,2024-08-01T12:13:00.000000,2024-08-01
63362022,85564,52,46,,B52-191,BUS32024-hbb34ns1-Weekday-02,52-5-0,1,0,Outbound,Dedham Mall,Baker St @ Capital St,55,42480,0,3600,3600,2024-08-01T11:48:00.000000,2024-08-01T12:13:00.000000,2024-08-01
63362022,85565,52,47,baker,B52-191,BUS32024-hbb34ns1-Weekday-02,52-5-0,1,0,Outbound,Dedham Mall,Baker St opp Varick Rd,55,42480,60,3600,3600,2024-08-01T11:48:00.000000,2024-08-01T12:14:00.000000,2024-08-01
63362022,85566,52,48,,B52-191,BUS32024-hbb34ns1-Weekday-02,52-5-0,1,0,Outbound,Dedham Mall,Baker St @ Amesbury St,55,42480,60,3600,3600,2024-08-01T11:48:00.000000,2024-08-01T12:15:00.000000,2024-08-01
63362022,85567,52,49,,B52-191,BUS32024-hbb34ns1-Weekday-02,52-5-0,1,0,Outbound,Dedham Mall,Baker St @ Cutter Rd,55,42480,0,3600,3600,2024-08-01T11:48:00.000000,2024-08-01T12:15:00.000000,2024-08-01
63362022,85568,52,50,,B52-191,BUS32024-hbb34ns1-Weekday-02,52-5-0,1,0,Outbound,Dedham Mall,Baker St @ Dunwell St,55,42480,60,3600,3600,2024-08-01T11:48:00.000000,2024-08-01T12:16:00.000000,2024-08-01
63362022,85569,52,51,,B52-191,BUS32024-hbb34ns1-Weekday-02,52-5-0,1,0,Outbound,Dedham Mall,Baker St @ Wycliff Ave,55,42480,60,3600,3600,2024-08-01T11:48:00.000000,2024-08-01T12:17:00.000000,2024-08-01
63362022,816,52,52,,B52-191,BUS32024-hbb34ns1-Weekday-02,52-5-0,1,0,Outbound,Dedham Mall,Spring St @ Moville St,55,42480,0,3600,3600,2024-08-01T11:48:00.000000,2024-08-01T12:17:00.000000,2024-08-01
63362022,817,52,53,cloop,B52-191,BUS32024-hbb34ns1-Weekday-02,52-5-0,1,0,Outbound,Dedham Mall,Spring St @ VA Hospital,55,42480,60,3600,3600,2024-08-01T11:48:00.000000,2024-08-01T12:18:00.000000,2024-08-01
63362022,10835,52,54,,B52-191,BUS32024-hbb34ns1-Weekday-02,52-5-0,1,0,Outbound,Dedham Mall,Dedham Mall @ South Side,55,42480,420,3600,3600,2024-08-01T11:48:00.000000,2024-08-01T12:25:00.000000,2024-08-01
63362022,10833,52,55,dmall,B52-191,BUS32024-hbb34ns1-Weekday-02,52-5-0,1,0,Outbound,Dedham Mall,Dedham Mall @ Stop & Shop,55,42480,120,3600,3600,2024-08-01T11:48:00.000000,2024-08-01T12:27:00.000000,2024-08-01
ElmSt2-684842-201-HaverhillBradfordVanV1,WR-0325-B,Shuttle-BradfordHaverhill,0,,,SPRING2024-NORTHWKD-Weekday-16,Shuttle-BradfordHaverhill-0-0,5,0,Outbound,Haverhill,Bradford - Parking Lot,2,26220,,,,2024-08-01T07:17:00.000000,2024-08-01T07:17:00.000000,2024-08-01
ElmSt2-684842-201-HaverhillBradfordVanV1,WR-0329-B,Shuttle-BradfordHaverhill,1,,,SPRING2024-NORTHWKD-Weekday-16,Shuttle-BradfordHaverhill-0-0,5,0,Outbound,Haverhill,Haverhill - Parking Lot,2,26220,300,,,2024-08-01T07:17:00.000000,2024-08-01T07:22:00.000000,2024-08-01
ElmSt2-684849-208-HaverhillBradfordVanV1,WR-0329-B,Shuttle-BradfordHaverhill,0,,,SPRING2024-NORTHWKD-Weekday-16,Shuttle-BradfordHaverhill-0-1,5,1,Inbound,North Station,Haverhill - Parking Lot,2,34800,,4800,4800,2024-08-01T09:40:00.000000,2024-08-01T09:40:00.000000,2024-08-01
ElmSt2-684849-208-HaverhillBradfordVanV1,WR-0325-B,Shuttle-BradfordHaverhill,1,,,SPRING2024-NORTHWKD-Weekday-16,Shuttle-BradfordHaverhill-0-1,5,1,Inbound,North Station,Bradford - Parking Lot,2,34800,300,4800,4800,2024-08-01T09:40:00.000000,2024-08-01T09:45:00.000000,2024-08-01
ElmSt2-684858-217-HaverhillBradfordVanV1,WR-0325-B,Shuttle-BradfordHaverhill,0,,,SPRING2024-NORTHWKD-Weekday-16,Shuttle-BradfordHaverhill-0-0,5,0,Outbound,Haverhill,Bradford - Parking Lot,2,67500,,3240,3240,2024-08-01T18:45:00.000000,2024-08-01T18:45:00.000000,2024-08-01
ElmSt2-684858-217-HaverhillBradfordVanV1,WR-0329-B,Shuttle-BradfordHaverhill,1,,,SPRING2024-NORTHWKD-Weekday-16,Shuttle-BradfordHaverhill-0-0,5,0,Outbound,Haverhill,Haverhill - Parking Lot,2,67500,300,3240,3240,2024-08-01T18:45:00.000000,2024-08-01T18:50:00.000000,2024-08-01
