service_date,route_id,trip_id,start_time,start_dt,stop_count,direction_id,stop_id,stop_sequence,vehicle_id,vehicle_label,gtfs_travel_to_dt,gtfs_arrival_dt,tm_stop_sequence,tm_scheduled_time_dt,tm_actual_arrival_dt,tm_actual_departure_dt,tm_scheduled_time_sam,tm_actual_arrival_time_sam,tm_actual_departure_time_sam,plan_trip_id,exact_plan_trip_match,block_id,service_id,route_pattern_id,route_pattern_typicality,direction,direction_destination,plan_stop_count,plan_start_time,plan_start_dt,stop_name,plan_travel_time_seconds,plan_route_direction_headway_seconds,plan_direction_destination_headway_seconds,gtfs_sort_dt,gtfs_departure_dt,tmp_default_arrival_dt,tmp_default_departure_dt,stop_arrival_dt,stop_departure_dt,gtfs_travel_to_seconds,stop_arrival_seconds,stop_departure_seconds,travel_time_seconds,dwell_time_seconds,route_direction_headway_seconds,direction_destination_headway_seconds
20250505,455,68655999,30600,2025-05-05T08:30:00.000000,72,0,15799,1,y3322,3322,,2025-05-05T12:33:30.000000+0000,,,,,,,,68655999,true,L455-159,BUS22025-hbl25011-Weekday-02,455-7-0,1,Outbound,Salem Depot,71,30600,2025-05-05T08:30:00.000000,Wonderland,,0,0,2025-05-05T12:33:30.000000+0000,2025-05-05T12:36:27.000000+0000,2025-05-05T12:33:30.000000+0000,2025-05-05T12:36:27.000000+0000,2025-05-05T12:33:30.000000+0000,2025-05-05T12:36:27.000000+0000,,45210,45387,,177,414,414
20250505,455,68655999,30600,2025-05-05T08:30:00.000000,72,0,5700,2,y3322,3322,2025-05-05T12:36:27.000000+0000,2025-05-05T12:37:55.000000+0000,,,,,,,,68655999,true,L455-159,BUS22025-hbl25011-Weekday-02,455-7-0,1,Outbound,Salem Depot,71,30600,2025-05-05T08:30:00.000000,Revere St @ Ford St,0,0,0,2025-05-05T12:36:27.000000+0000,2025-05-05T12:38:16.000000+0000,2025-05-05T12:37:55.000000+0000,2025-05-05T12:38:16.000000+0000,2025-05-05T12:37:55.000000+0000,2025-05-05T12:38:16.000000+0000,45387,45475,45496,88,21,1484,1484
20250505,455,68655999,30600,2025-05-05T08:30:00.000000,72,0,5701,3,y3322,3322,2025-05-05T12:38:16.000000+0000,2025-05-05T12:38:31.000000+0000,,,,,,,,68655999,true,L455-159,BUS22025-hbl25011-Weekday-02,455-7-0,1,Outbound,Salem Depot,71,30600,2025-05-05T08:30:00.000000,Revere St @ Bosson St,0,0,0,2025-05-05T12:38:16.000000+0000,2025-05-05T12:38:40.000000+0000,2025-05-05T12:38:31.000000+0000,2025-05-05T12:38:40.000000+0000,2025-05-05T12:38:31.000000+0000,2025-05-05T12:38:40.000000+0000,45496,45511,45520,15,9,1417,1417
20250505,455,68655999,30600,2025-05-05T08:30:00.000000,72,0,5703,4,y3322,3322,2025-05-05T12:38:40.000000+0000,2025-05-05T12:38:55.000000+0000,,,,,,,,68655999,true,L455-159,BUS22025-hbl25011-Weekday-02,455-7-0,1,Outbound,Salem Depot,71,30600,2025-05-05T08:30:00.000000,Revere St @ Bates St,0,0,0,2025-05-05T12:38:40.000000+0000,2025-05-05T12:39:07.000000+0000,2025-05-05T12:38:55.000000+0000,2025-05-05T12:39:07.000000+0000,2025-05-05T12:38:55.000000+0000,2025-05-05T12:39:07.000000+0000,45520,45535,45547,15,12,1397,1397
20250505,455,68655999,30600,2025-05-05T08:30:00.000000,72,0,5704,5,y3322,3322,2025-05-05T12:39:07.000000+0000,2025-05-05T12:39:19.000000+0000,,,,,,,,68655999,true,L455-159,BUS22025-hbl25011-Weekday-02,455-7-0,1,Outbound,Salem Depot,71,30600,2025-05-05T08:30:00.000000,Revere St @ Breed St,0,0,0,2025-05-05T12:39:07.000000+0000,2025-05-05T12:39:26.000000+0000,2025-05-05T12:39:19.000000+0000,2025-05-05T12:39:26.000000+0000,2025-05-05T12:39:19.000000+0000,2025-05-05T12:39:26.000000+0000,45547,45559,45566,12,7,1397,1397
20250505,455,68655999,30600,2025-05-05T08:30:00.000000,72,0,35704,6,y3322,3322,2025-05-05T12:39:26.000000+0000,2025-05-05T12:39:36.000000+0000,,,,,,,,68655999,true,L455-159,BUS22025-hbl25011-Weekday-02,455-7-0,1,Outbound,Salem Depot,71,30600,2025-05-05T08:30:00.000000,Revere St @ Stowers St,0,0,0,2025-05-05T12:39:26.000000+0000,2025-05-05T12:39:50.000000+0000,2025-05-05T12:39:36.000000+0000,2025-05-05T12:39:50.000000+0000,2025-05-05T12:39:36.000000+0000,2025-05-05T12:39:50.000000+0000,45566,45576,45590,10,14,1332,1332
20250505,455,68655999,30600,2025-05-05T08:30:00.000000,72,0,4512,7,y3322,3322,2025-05-05T12:39:50.000000+0000,2025-05-05T12:40:02.000000+0000,,,,,,,,68655999,true,L455-159,BUS22025-hbl25011-Weekday-02,455-7-0,1,Outbound,Salem Depot,71,30600,2025-05-05T08:30:00.000000,American Legion Hwy @ Revere St,0,0,0,2025-05-05T12:39:50.000000+0000,2025-05-05T12:41:00.000000+0000,2025-05-05T12:40:02.000000+0000,2025-05-05T12:41:00.000000+0000,2025-05-05T12:40:02.000000+0000,2025-05-05T12:41:00.000000+0000,45590,45602,45660,12,58,1258,1258
20250505,455,68655999,30600,2025-05-05T08:30:00.000000,72,0,4513,8,y3322,3322,2025-05-05T12:41:00.000000+0000,2025-05-05T12:41:13.000000+0000,,,,,,,,68655999,true,L455-159,BUS22025-hbl25011-Weekday-02,455-7-0,1,Outbound,Salem Depot,71,30600,2025-05-05T08:30:00.000000,American Legion Hwy @ Hutchinson St,0,0,0,2025-05-05T12:41:00.000000+0000,2025-05-05T12:41:19.000000+0000,2025-05-05T12:41:13.000000+0000,2025-05-05T12:41:19.000000+0000,2025-05-05T12:41:13.000000+0000,2025-05-05T12:41:19.000000+0000,45660,45673,45679,13,6,1265,1265
20250505,455,68655999,30600,2025-05-05T08:30:00.000000,72,0,4515,9,y3322,3322,2025-05-05T12:41:19.000000+0000,2025-05-05T12:41:34.000000+0000,9,2025-05-05T12:37:00.000000+0000,2025-05-05T12:42:04.000000+0000,2025-05-05T12:42:15.000000+0000,31020,31324,31335,68655999,true,L455-159,BUS22025-hbl25011-Weekday-02,455-7-0,1,Outbound,Salem Depot,71,30600,2025-05-05T08:30:00.000000,Brown Circle Rotary,0,0,0,2025-05-05T12:41:19.000000+0000,2025-05-05T12:42:05.000000+0000,2025-05-05T12:42:04.000000+0000,2025-05-05T12:42:15.000000+0000,2025-05-05T12:42:04.000000+0000,2025-05-05T12:42:15.000000+0000,45679,45724,45735,45,11,1247,1247
20250505,455,68655999,30600,2025-05-05T08:30:00.000000,72,0,4516,10,y3322,3322,2025-05-05T12:42:05.000000+0000,2025-05-05T12:45:11.000000+0000,,,,,,,,68655999,true,L455-159,BUS22025-hbl25011-Weekday-02,455-7-0,1,Outbound,Salem Depot,71,30600,2025-05-05T08:30:00.000000,Salem Tnpk @ Ballard St,0,0,0,2025-05-05T12:42:05.000000+0000,2025-05-05T12:45:41.000000+0000,2025-05-05T12:45:11.000000+0000,2025-05-05T12:45:41.000000+0000,2025-05-05T12:45:11.000000+0000,2025-05-05T12:45:41.000000+0000,45725,45911,45941,186,30,1254,1254
20250505,455,68655999,30600,2025-05-05T08:30:00.000000,72,0,4518,11,y3322,3322,2025-05-05T12:45:41.000000+0000,2025-05-05T12:46:54.000000+0000,,,,,,,,68655999,true,L455-159,BUS22025-hbl25011-Weekday-02,455-7-0,1,Outbound,Salem Depot,71,30600,2025-05-05T08:30:00.000000,Western Ave opp Cooper St,0,0,0,2025-05-05T12:45:41.000000+0000,2025-05-05T12:47:07.000000+0000,2025-05-05T12:46:54.000000+0000,2025-05-05T12:47:07.000000+0000,2025-05-05T12:46:54.000000+0000,2025-05-05T12:47:07.000000+0000,45941,46014,46027,73,13,1256,1256
20250505,455,68655999,30600,2025-05-05T08:30:00.000000,72,0,4520,12,y3322,3322,2025-05-05T12:47:07.000000+0000,2025-05-05T12:47:23.000000+0000,12,2025-05-05T12:43:00.000000+0000,2025-05-05T12:47:21.000000+0000,2025-05-05T12:51:06.000000+0000,31380,31641,31866,68655999,true,L455-159,BUS22025-hbl25011-Weekday-02,455-7-0,1,Outbound,Salem Depot,71,30600,2025-05-05T08:30:00.000000,Western Ave opp Lynn Garage,0,0,0,2025-05-05T12:47:07.000000+0000,2025-05-05T12:51:12.000000+0000,2025-05-05T12:47:21.000000+0000,2025-05-05T12:51:06.000000+0000,2025-05-05T12:47:21.000000+0000,2025-05-05T12:51:06.000000+0000,46027,46041,46266,14,225,1299,1299
20250505,455,68655999,30600,2025-05-05T08:30:00.000000,72,0,45211,13,y3322,3322,2025-05-05T12:51:12.000000+0000,2025-05-05T12:51:33.000000+0000,,,,,,,,68655999,true,L455-159,BUS22025-hbl25011-Weekday-02,455-7-0,1,Outbound,Salem Depot,71,30600,2025-05-05T08:30:00.000000,Western Ave opp Ida St,0,0,0,2025-05-05T12:51:12.000000+0000,2025-05-05T12:51:43.000000+0000,2025-05-05T12:51:33.000000+0000,2025-05-05T12:51:43.000000+0000,2025-05-05T12:51:33.000000+0000,2025-05-05T12:51:43.000000+0000,46272,46293,46303,21,10,1312,1312
20250505,455,68655999,30600,2025-05-05T08:30:00.000000,72,0,4521,14,y3322,3322,2025-05-05T12:51:43.000000+0000,2025-05-05T12:52:50.000000+0000,,,,,,,,68655999,true,L455-159,BUS22025-hbl25011-Weekday-02,455-7-0,1,Outbound,Salem Depot,71,30600,2025-05-05T08:30:00.000000,Western Ave @ Minot St,0,0,0,2025-05-05T12:51:43.000000+0000,2025-05-05T12:54:03.000000+0000,2025-05-05T12:52:50.000000+0000,2025-05-05T12:54:03.000000+0000,2025-05-05T12:52:50.000000+0000,2025-05-05T12:54:03.000000+0000,46303,46370,46443,67,73,1416,1416
20250505,455,68655999,30600,2025-05-05T08:30:00.000000,72,0,4522,15,y3322,3322,2025-05-05T12:54:03.000000+0000,2025-05-05T12:54:16.000000+0000,,,,,,,,68655999,true,L455-159,BUS22025-hbl25011-Weekday-02,455-7-0,1,Outbound,Salem Depot,71,30600,2025-05-05T08:30:00.000000,Western Ave @ Summer St,0,0,0,2025-05-05T12:54:03.000000+0000,2025-05-05T12:54:47.000000+0000,2025-05-05T12:54:16.000000+0000,2025-05-05T12:54:47.000000+0000,2025-05-05T12:54:16.000000+0000,2025-05-05T12:54:47.000000+0000,46443,46456,46487,13,31,1395,1395
20250505,455,68655999,30600,2025-05-05T08:30:00.000000,72,0,4523,16,y3322,3322,2025-05-05T12:54:47.000000+0000,2025-05-05T12:55:04.000000+0000,,,,,,,,68655999,true,L455-159,BUS22025-hbl25011-Weekday-02,455-7-0,1,Outbound,Salem Depot,71,30600,2025-05-05T08:30:00.000000,Western Ave @ Walden St,0,0,0,2025-05-05T12:54:47.000000+0000,2025-05-05T12:55:20.000000+0000,2025-05-05T12:55:04.000000+0000,2025-05-05T12:55:20.000000+0000,2025-05-05T12:55:04.000000+0000,2025-05-05T12:55:20.000000+0000,46487,46504,46520,17,16,1414,1414
20250505,455,68655999,30600,2025-05-05T08:30:00.000000,72,0,4524,17,y3322,3322,2025-05-05T12:55:20.000000+0000,2025-05-05T12:55:25.000000+0000,,,,,,,,68655999,true,L455-159,BUS22025-hbl25011-Weekday-02,455-7-0,1,Outbound,Salem Depot,71,30600,2025-05-05T08:30:00.000000,760 Western Ave,0,0,0,2025-05-05T12:55:20.000000+0000,2025-05-05T12:56:00.000000+0000,2025-05-05T12:55:25.000000+0000,2025-05-05T12:56:00.000000+0000,2025-05-05T12:55:25.000000+0000,2025-05-05T12:56:00.000000+0000,46520,46525,46560,5,35,1377,1377
20250505,455,68655999,30600,2025-05-05T08:30:00.000000,72,0,4525,18,y3322,3322,2025-05-05T12:56:00.000000+0000,2025-05-05T12:57:11.000000+0000,18,2025-05-05T12:49:00.000000+0000,2025-05-05T12:56:56.000000+0000,2025-05-05T12:57:40.000000+0000,31740,32216,32260,68655999,true,L455-159,BUS22025-hbl25011-Weekday-02,455-7-0,1,Outbound,Salem Depot,71,30600,2025-05-05T08:30:00.000000,Market Square @ Western Ave,0,0,0,2025-05-05T12:56:00.000000+0000,2025-05-05T12:57:45.000000+0000,2025-05-05T12:56:56.000000+0000,2025-05-05T12:57:40.000000+0000,2025-05-05T12:56:56.000000+0000,2025-05-05T12:57:40.000000+0000,46560,46616,46660,56,44,1392,1392
20250505,455,68655999,30600,2025-05-05T08:30:00.000000,72,0,6822,19,y3322,3322,2025-05-05T12:57:45.000000+0000,2025-05-05T12:58:07.000000+0000,,,,,,,,68655999,true,L455-159,BUS22025-hbl25011-Weekday-02,455-7-0,1,Outbound,Salem Depot,71,30600,2025-05-05T08:30:00.000000,S Common St @ Caggiano Plaza,0,0,0,2025-05-05T12:57:45.000000+0000,2025-05-05T12:58:31.000000+0000,2025-05-05T12:58:07.000000+0000,2025-05-05T12:58:31.000000+0000,2025-05-05T12:58:07.000000+0000,2025-05-05T12:58:31.000000+0000,46665,46687,46711,22,24,1386,1386
20250505,455,68655999,30600,2025-05-05T08:30:00.000000,72,0,6824,20,y3322,3322,2025-05-05T12:58:31.000000+0000,2025-05-05T12:59:06.000000+0000,,,,,,,,68655999,true,L455-159,BUS22025-hbl25011-Weekday-02,455-7-0,1,Outbound,Salem Depot,71,30600,2025-05-05T08:30:00.000000,S Common St @ Blossom St,0,0,0,2025-05-05T12:58:31.000000+0000,2025-05-05T12:59:46.000000+0000,2025-05-05T12:59:06.000000+0000,2025-05-05T12:59:46.000000+0000,2025-05-05T12:59:06.000000+0000,2025-05-05T12:59:46.000000+0000,46711,46746,46786,35,40,1383,1383
20250505,455,68655999,30600,2025-05-05T08:30:00.000000,72,0,6827,21,y3322,3322,2025-05-05T12:59:46.000000+0000,2025-05-05T13:00:12.000000+0000,,,,,,,,68655999,true,L455-159,BUS22025-hbl25011-Weekday-02,455-7-0,1,Outbound,Salem Depot,71,30600,2025-05-05T08:30:00.000000,S Common St @ Market St,0,0,0,2025-05-05T12:59:46.000000+0000,2025-05-05T13:00:30.000000+0000,2025-05-05T13:00:12.000000+0000,2025-05-05T13:00:30.000000+0000,2025-05-05T13:00:12.000000+0000,2025-05-05T13:00:30.000000+0000,46786,46812,46830,26,18,1369,1369
20250505,455,68655999,30600,2025-05-05T08:30:00.000000,72,0,6773,22,y3322,3322,2025-05-05T13:00:30.000000+0000,2025-05-05T13:01:03.000000+0000,,,,,,,,68655999,true,L455-159,BUS22025-hbl25011-Weekday-02,455-7-0,1,Outbound,Salem Depot,71,30600,2025-05-05T08:30:00.000000,Market St @ Tremont St,0,0,0,2025-05-05T13:00:30.000000+0000,2025-05-05T13:01:39.000000+0000,2025-05-05T13:01:03.000000+0000,2025-05-05T13:01:39.000000+0000,2025-05-05T13:01:03.000000+0000,2025-05-05T13:01:39.000000+0000,46830,46863,46899,33,36,1364,1364
20250505,455,68655999,30600,2025-05-05T08:30:00.000000,72,0,14748,23,y3322,3322,2025-05-05T13:01:39.000000+0000,2025-05-05T13:02:18.000000+0000,23,2025-05-05T12:56:00.000000+0000,2025-05-05T13:02:10.000000+0000,2025-05-05T13:03:03.000000+0000,32160,32530,32583,68655999,true,L455-159,BUS22025-hbl25011-Weekday-02,455-7-0,1,Outbound,Salem Depot,71,30600,2025-05-05T08:30:00.000000,Lynn,0,0,0,2025-05-05T13:01:39.000000+0000,2025-05-05T13:02:58.000000+0000,2025-05-05T13:02:10.000000+0000,2025-05-05T13:03:03.000000+0000,2025-05-05T13:02:10.000000+0000,2025-05-05T13:03:03.000000+0000,46899,46930,46983,31,53,1288,1288
20250505,455,68655999,30600,2025-05-05T08:30:00.000000,72,0,6600,24,y3322,3322,2025-05-05T13:02:58.000000+0000,2025-05-05T13:03:36.000000+0000,,,,,,,,68655999,true,L455-159,BUS22025-hbl25011-Weekday-02,455-7-0,1,Outbound,Salem Depot,71,30600,2025-05-05T08:30:00.000000,Union St @ Exchange St,0,0,0,2025-05-05T13:02:58.000000+0000,2025-05-05T13:04:20.000000+0000,2025-05-05T13:03:36.000000+0000,2025-05-05T13:04:20.000000+0000,2025-05-05T13:03:36.000000+0000,2025-05-05T13:04:20.000000+0000,46978,47016,47060,38,44,1250,1250
20250505,455,68655999,30600,2025-05-05T08:30:00.000000,72,0,6830,25,y3322,3322,2025-05-05T13:04:20.000000+0000,2025-05-05T13:05:00.000000+0000,,,,,,,,68655999,true,L455-159,BUS22025-hbl25011-Weekday-02,455-7-0,1,Outbound,Salem Depot,71,30600,2025-05-05T08:30:00.000000,Union St @ Silsbee St,0,0,0,2025-05-05T13:04:20.000000+0000,2025-05-05T13:05:36.000000+0000,2025-05-05T13:05:00.000000+0000,2025-05-05T13:05:36.000000+0000,2025-05-05T13:05:00.000000+0000,2025-05-05T13:05:36.000000+0000,47060,47100,47136,40,36,1267,1267
20250505,455,68655999,30600,2025-05-05T08:30:00.000000,72,0,6831,26,y3322,3322,2025-05-05T13:05:36.000000+0000,2025-05-05T13:05:48.000000+0000,,,,,,,,68655999,true,L455-159,BUS22025-hbl25011-Weekday-02,455-7-0,1,Outbound,Salem Depot,71,30600,2025-05-05T08:30:00.000000,Union St @ Smith St,0,0,0,2025-05-05T13:05:36.000000+0000,2025-05-05T13:06:41.000000+0000,2025-05-05T13:05:48.000000+0000,2025-05-05T13:06:41.000000+0000,2025-05-05T13:05:48.000000+0000,2025-05-05T13:06:41.000000+0000,47136,47148,47201,12,53,1278,1278
20250505,455,68655999,30600,2025-05-05T08:30:00.000000,72,0,6833,27,y3322,3322,2025-05-05T13:06:41.000000+0000,2025-05-05T13:07:02.000000+0000,,,,,,,,68655999,true,L455-159,BUS22025-hbl25011-Weekday-02,455-7-0,1,Outbound,Salem Depot,71,30600,2025-05-05T08:30:00.000000,Union St @ Pinkham St,0,0,0,2025-05-05T13:06:41.000000+0000,2025-05-05T13:07:29.000000+0000,2025-05-05T13:07:02.000000+0000,2025-05-05T13:07:29.000000+0000,2025-05-05T13:07:02.000000+0000,2025-05-05T13:07:29.000000+0000,47201,47222,47249,21,27,1315,1315
20250505,455,68655999,30600,2025-05-05T08:30:00.000000,72,0,6834,28,y3322,3322,2025-05-05T13:07:29.000000+0000,2025-05-05T13:07:40.000000+0000,,,,,,,,68655999,true,L455-159,BUS22025-hbl25011-Weekday-02,455-7-0,1,Outbound,Salem Depot,71,30600,2025-05-05T08:30:00.000000,Union St @ Chestnut St,0,0,0,2025-05-05T13:07:29.000000+0000,2025-05-05T13:08:46.000000+0000,2025-05-05T13:07:40.000000+0000,2025-05-05T13:08:46.000000+0000,2025-05-05T13:07:40.000000+0000,2025-05-05T13:08:46.000000+0000,47249,47260,47326,11,66,1314,1314
20250505,455,68655999,30600,2025-05-05T08:30:00.000000,72,0,6142,29,y3322,3322,2025-05-05T13:08:46.000000+0000,2025-05-05T13:09:03.000000+0000,,,,,,,,68655999,true,L455-159,BUS22025-hbl25011-Weekday-02,455-7-0,1,Outbound,Salem Depot,71,30600,2025-05-05T08:30:00.000000,Essex St @ Fayette St,0,0,0,2025-05-05T13:08:46.000000+0000,2025-05-05T13:09:46.000000+0000,2025-05-05T13:09:03.000000+0000,2025-05-05T13:09:46.000000+0000,2025-05-05T13:09:03.000000+0000,2025-05-05T13:09:46.000000+0000,47326,47343,47386,17,43,1339,1339
20250505,455,68655999,30600,2025-05-05T08:30:00.000000,72,0,6143,30,y3322,3322,2025-05-05T13:09:46.000000+0000,2025-05-05T13:10:10.000000+0000,,,,,,,,68655999,true,L455-159,BUS22025-hbl25011-Weekday-02,455-7-0,1,Outbound,Salem Depot,71,30600,2025-05-05T08:30:00.000000,Essex St @ Chatham St,0,0,0,2025-05-05T13:09:46.000000+0000,2025-05-05T13:10:16.000000+0000,2025-05-05T13:10:10.000000+0000,2025-05-05T13:10:16.000000+0000,2025-05-05T13:10:10.000000+0000,2025-05-05T13:10:16.000000+0000,47386,47410,47416,24,6,1326,1326
20250505,455,68655999,30600,2025-05-05T08:30:00.000000,72,0,6144,31,y3322,3322,2025-05-05T13:10:16.000000+0000,2025-05-05T13:10:21.000000+0000,,,,,,,,68655999,true,L455-159,BUS22025-hbl25011-Weekday-02,455-7-0,1,Outbound,Salem Depot,71,30600,2025-05-05T08:30:00.000000,Essex St opp Porter St,0,0,0,2025-05-05T13:10:16.000000+0000,2025-05-05T13:10:24.000000+0000,2025-05-05T13:10:21.000000+0000,2025-05-05T13:10:24.000000+0000,2025-05-05T13:10:21.000000+0000,2025-05-05T13:10:24.000000+0000,47416,47421,47424,5,3,1292,1292
20250505,455,68655999,30600,2025-05-05T08:30:00.000000,72,0,6145,32,y3322,3322,2025-05-05T13:10:24.000000+0000,2025-05-05T13:10:46.000000+0000,,,,,,,,68655999,true,L455-159,BUS22025-hbl25011-Weekday-02,455-7-0,1,Outbound,Salem Depot,71,30600,2025-05-05T08:30:00.000000,Essex St @ Empire St,0,0,0,2025-05-05T13:10:24.000000+0000,2025-05-05T13:11:02.000000+0000,2025-05-05T13:10:46.000000+0000,2025-05-05T13:11:02.000000+0000,2025-05-05T13:10:46.000000+0000,2025-05-05T13:11:02.000000+0000,47424,47446,47462,22,16,1320,1320
20250505,455,68655999,30600,2025-05-05T08:30:00.000000,72,0,6146,33,y3322,3322,2025-05-05T13:11:02.000000+0000,2025-05-05T13:11:02.000000+0000,33,2025-05-05T13:06:00.000000+0000,2025-05-05T13:10:53.000000+0000,2025-05-05T13:11:11.000000+0000,32760,33053,33071,68655999,true,L455-159,BUS22025-hbl25011-Weekday-02,455-7-0,1,Outbound,Salem Depot,71,30600,2025-05-05T08:30:00.000000,Essex St @ Eastern Ave,0,0,0,2025-05-05T13:11:02.000000+0000,2025-05-05T13:11:23.000000+0000,2025-05-05T13:10:53.000000+0000,2025-05-05T13:11:11.000000+0000,2025-05-05T13:10:53.000000+0000,2025-05-05T13:11:11.000000+0000,47462,47453,47471,-9,18,1274,1274
20250505,455,68655999,30600,2025-05-05T08:30:00.000000,72,0,6147,34,y3322,3322,2025-05-05T13:11:23.000000+0000,2025-05-05T13:11:30.000000+0000,,,,,,,,68655999,true,L455-159,BUS22025-hbl25011-Weekday-02,455-7-0,1,Outbound,Salem Depot,71,30600,2025-05-05T08:30:00.000000,12 Essex St,0,0,0,2025-05-05T13:11:23.000000+0000,2025-05-05T13:11:37.000000+0000,2025-05-05T13:11:30.000000+0000,2025-05-05T13:11:37.000000+0000,2025-05-05T13:11:30.000000+0000,2025-05-05T13:11:37.000000+0000,47483,47490,47497,7,7,1283,1283
20250505,455,68655999,30600,2025-05-05T08:30:00.000000,72,0,6148,35,y3322,3322,2025-05-05T13:11:37.000000+0000,2025-05-05T13:11:49.000000+0000,,,,,,,,68655999,true,L455-159,BUS22025-hbl25011-Weekday-02,455-7-0,1,Outbound,Salem Depot,71,30600,2025-05-05T08:30:00.000000,Essex St @ Essex Ave,0,0,0,2025-05-05T13:11:37.000000+0000,,2025-05-05T13:11:49.000000+0000,,2025-05-05T13:11:49.000000+0000,,47497,47509,,12,,1249,1249
20250505,455,68655999,30600,2025-05-05T08:30:00.000000,72,0,6149,36,y3322,3322,,2025-05-05T13:12:03.000000+0000,,,,,,,,68655999,true,L455-159,BUS22025-hbl25011-Weekday-02,455-7-0,1,Outbound,Salem Depot,71,30600,2025-05-05T08:30:00.000000,Essex St @ Burrill St,0,0,0,2025-05-05T13:12:03.000000+0000,,2025-05-05T13:12:03.000000+0000,,2025-05-05T13:12:03.000000+0000,,,47523,,,,1253,1253
20250505,455,68655999,30600,2025-05-05T08:30:00.000000,72,0,6150,37,y3322,3322,,2025-05-05T13:12:36.000000+0000,,,,,,,,68655999,true,L455-159,BUS22025-hbl25011-Weekday-02,455-7-0,1,Outbound,Salem Depot,71,30600,2025-05-05T08:30:00.000000,Essex St @ Elm Pl,0,0,0,2025-05-05T13:12:36.000000+0000,2025-05-05T13:12:45.000000+0000,2025-05-05T13:12:36.000000+0000,2025-05-05T13:12:45.000000+0000,2025-05-05T13:12:36.000000+0000,2025-05-05T13:12:45.000000+0000,,47556,47565,,9,1263,1263
20250505,455,68655999,30600,2025-05-05T08:30:00.000000,72,0,6151,38,y3322,3322,2025-05-05T13:12:45.000000+0000,2025-05-05T13:13:17.000000+0000,,,,,,,,68655999,true,L455-159,BUS22025-hbl25011-Weekday-02,455-7-0,1,Outbound,Salem Depot,71,30600,2025-05-05T08:30:00.000000,253 Essex St,0,0,0,2025-05-05T13:12:45.000000+0000,2025-05-05T13:13:26.000000+0000,2025-05-05T13:13:17.000000+0000,2025-05-05T13:13:26.000000+0000,2025-05-05T13:13:17.000000+0000,2025-05-05T13:13:26.000000+0000,47565,47597,47606,32,9,1266,1266
20250505,455,68655999,30600,2025-05-05T08:30:00.000000,72,0,6152,39,y3322,3322,2025-05-05T13:13:26.000000+0000,2025-05-05T13:13:36.000000+0000,,,,,,,,68655999,true,L455-159,BUS22025-hbl25011-Weekday-02,455-7-0,1,Outbound,Salem Depot,71,30600,2025-05-05T08:30:00.000000,Essex St @ Stetson Ave,0,0,0,2025-05-05T13:13:26.000000+0000,2025-05-05T13:14:05.000000+0000,2025-05-05T13:13:36.000000+0000,2025-05-05T13:14:05.000000+0000,2025-05-05T13:13:36.000000+0000,2025-05-05T13:14:05.000000+0000,47606,47616,47645,10,29,1285,1285
20250505,455,68655999,30600,2025-05-05T08:30:00.000000,72,0,6153,40,y3322,3322,2025-05-05T13:14:05.000000+0000,2025-05-05T13:14:11.000000+0000,,,,,,,,68655999,true,L455-159,BUS22025-hbl25011-Weekday-02,455-7-0,1,Outbound,Salem Depot,71,30600,2025-05-05T08:30:00.000000,Essex St @ Eastman Ave,0,0,0,2025-05-05T13:14:05.000000+0000,2025-05-05T13:14:55.000000+0000,2025-05-05T13:14:11.000000+0000,2025-05-05T13:14:55.000000+0000,2025-05-05T13:14:11.000000+0000,2025-05-05T13:14:55.000000+0000,47645,47651,47695,6,44,1285,1285
20250505,455,68655999,30600,2025-05-05T08:30:00.000000,72,0,6154,41,y3322,3322,2025-05-05T13:14:55.000000+0000,2025-05-05T13:14:58.000000+0000,,,,,,,,68655999,true,L455-159,BUS22025-hbl25011-Weekday-02,455-7-0,1,Outbound,Salem Depot,71,30600,2025-05-05T08:30:00.000000,Essex St @ Alvin Rd,0,0,0,2025-05-05T13:14:55.000000+0000,,2025-05-05T13:14:58.000000+0000,,2025-05-05T13:14:58.000000+0000,,47695,47698,,3,,1283,1283
20250505,455,68655999,30600,2025-05-05T08:30:00.000000,72,0,6155,42,y3322,3322,,2025-05-05T13:15:10.000000+0000,,,,,,,,68655999,true,L455-159,BUS22025-hbl25011-Weekday-02,455-7-0,1,Outbound,Salem Depot,71,30600,2025-05-05T08:30:00.000000,Essex St @ Ryan Pl,0,0,0,2025-05-05T13:15:10.000000+0000,2025-05-05T13:15:13.000000+0000,2025-05-05T13:15:10.000000+0000,2025-05-05T13:15:13.000000+0000,2025-05-05T13:15:10.000000+0000,2025-05-05T13:15:13.000000+0000,,47710,47713,,3,1287,1287
20250505,455,68655999,30600,2025-05-05T08:30:00.000000,72,0,6156,43,y3322,3322,2025-05-05T13:15:13.000000+0000,2025-05-05T13:15:28.000000+0000,,,,,,,,68655999,true,L455-159,BUS22025-hbl25011-Weekday-02,455-7-0,1,Outbound,Salem Depot,71,30600,2025-05-05T08:30:00.000000,Essex St @ Swampscott Mall,0,0,0,2025-05-05T13:15:13.000000+0000,2025-05-05T13:16:10.000000+0000,2025-05-05T13:15:28.000000+0000,2025-05-05T13:16:10.000000+0000,2025-05-05T13:15:28.000000+0000,2025-05-05T13:16:10.000000+0000,47713,47728,47770,15,42,1320,1320
20250505,455,68655999,30600,2025-05-05T08:30:00.000000,72,0,16156,44,y3322,3322,2025-05-05T13:16:10.000000+0000,2025-05-05T13:16:22.000000+0000,,,,,,,,68655999,true,L455-159,BUS22025-hbl25011-Weekday-02,455-7-0,1,Outbound,Salem Depot,71,30600,2025-05-05T08:30:00.000000,Opp 1000 Loring Ave,0,0,0,2025-05-05T13:16:10.000000+0000,2025-05-05T13:16:28.000000+0000,2025-05-05T13:16:22.000000+0000,2025-05-05T13:16:28.000000+0000,2025-05-05T13:16:22.000000+0000,2025-05-05T13:16:28.000000+0000,47770,47782,47788,12,6,1311,1311
20250505,455,68655999,30600,2025-05-05T08:30:00.000000,72,0,6157,45,y3322,3322,2025-05-05T13:16:28.000000+0000,2025-05-05T13:16:35.000000+0000,45,2025-05-05T13:12:00.000000+0000,2025-05-05T13:16:30.000000+0000,2025-05-05T13:17:23.000000+0000,33120,33390,33443,68655999,true,L455-159,BUS22025-hbl25011-Weekday-02,455-7-0,1,Outbound,Salem Depot,71,30600,2025-05-05T08:30:00.000000,Loring Ave @ Vinnin St,0,0,0,2025-05-05T13:16:28.000000+0000,2025-05-05T13:17:25.000000+0000,2025-05-05T13:16:30.000000+0000,2025-05-05T13:17:23.000000+0000,2025-05-05T13:16:30.000000+0000,2025-05-05T13:17:23.000000+0000,47788,47790,47843,2,53,1302,1302
20250505,455,68655999,30600,2025-05-05T08:30:00.000000,72,0,6158,46,y3322,3322,2025-05-05T13:17:25.000000+0000,,,,,,,,,68655999,true,L455-159,BUS22025-hbl25011-Weekday-02,455-7-0,1,Outbound,Salem Depot,71,30600,2025-05-05T08:30:00.000000,Loring Ave @ Maple Ave,0,0,0,2025-05-05T13:17:25.000000+0000,2025-05-05T13:18:19.000000+0000,,2025-05-05T13:18:19.000000+0000,,2025-05-05T13:18:19.000000+0000,47845,,47899,54,,1281,1281
20250505,455,68655999,30600,2025-05-05T08:30:00.000000,72,0,6159,47,y3322,3322,2025-05-05T13:18:19.000000+0000,2025-05-05T13:18:28.000000+0000,,,,,,,,68655999,true,L455-159,BUS22025-hbl25011-Weekday-02,455-7-0,1,Outbound,Salem Depot,71,30600,2025-05-05T08:30:00.000000,Loring Ave @ Chandler Rd,0,0,0,2025-05-05T13:18:19.000000+0000,,2025-05-05T13:18:28.000000+0000,,2025-05-05T13:18:28.000000+0000,,47899,47908,,9,,,
20250505,455,68655999,30600,2025-05-05T08:30:00.000000,72,0,6160,48,y3322,3322,,2025-05-05T13:18:42.000000+0000,,,,,,,,68655999,true,L455-159,BUS22025-hbl25011-Weekday-02,455-7-0,1,Outbound,Salem Depot,71,30600,2025-05-05T08:30:00.000000,Opp 494 Loring Ave,0,0,0,2025-05-05T13:18:42.000000+0000,,2025-05-05T13:18:42.000000+0000,,2025-05-05T13:18:42.000000+0000,,,47922,,,,1282,1282
20250505,455,68655999,30600,2025-05-05T08:30:00.000000,72,0,6161,49,y3322,3322,,2025-05-05T13:18:45.000000+0000,,,,,,,,68655999,true,L455-159,BUS22025-hbl25011-Weekday-02,455-7-0,1,Outbound,Salem Depot,71,30600,2025-05-05T08:30:00.000000,Opp 446 Loring Ave,0,0,0,2025-05-05T13:18:45.000000+0000,2025-05-05T13:19:09.000000+0000,2025-05-05T13:18:45.000000+0000,2025-05-05T13:19:09.000000+0000,2025-05-05T13:18:45.000000+0000,2025-05-05T13:19:09.000000+0000,,47925,47949,,24,1306,1306
20250505,455,68655999,30600,2025-05-05T08:30:00.000000,72,0,6162,50,y3322,3322,2025-05-05T13:19:09.000000+0000,2025-05-05T13:19:18.000000+0000,,,,,,,,68655999,true,L455-159,BUS22025-hbl25011-Weekday-02,455-7-0,1,Outbound,Salem Depot,71,30600,2025-05-05T08:30:00.000000,Loring Ave opp Riverview St,0,0,0,2025-05-05T13:19:09.000000+0000,2025-05-05T13:19:26.000000+0000,2025-05-05T13:19:18.000000+0000,2025-05-05T13:19:26.000000+0000,2025-05-05T13:19:18.000000+0000,2025-05-05T13:19:26.000000+0000,47949,47958,47966,9,8,1308,1308
20250505,455,68655999,30600,2025-05-05T08:30:00.000000,72,0,6163,51,y3322,3322,2025-05-05T13:19:26.000000+0000,2025-05-05T13:19:35.000000+0000,,,,,,,,68655999,true,L455-159,BUS22025-hbl25011-Weekday-02,455-7-0,1,Outbound,Salem Depot,71,30600,2025-05-05T08:30:00.000000,Loring Ave @ Leggs Hill Rd,0,0,0,2025-05-05T13:19:26.000000+0000,2025-05-05T13:19:38.000000+0000,2025-05-05T13:19:35.000000+0000,2025-05-05T13:19:38.000000+0000,2025-05-05T13:19:35.000000+0000,2025-05-05T13:19:38.000000+0000,47966,47975,47978,9,3,1311,1311
20250505,455,68655999,30600,2025-05-05T08:30:00.000000,72,0,6164,52,y3322,3322,2025-05-05T13:19:38.000000+0000,2025-05-05T13:19:48.000000+0000,,,,,,,,68655999,true,L455-159,BUS22025-hbl25011-Weekday-02,455-7-0,1,Outbound,Salem Depot,71,30600,2025-05-05T08:30:00.000000,Loring Ave @ Lincoln Rd,0,0,0,2025-05-05T13:19:38.000000+0000,2025-05-05T13:19:57.000000+0000,2025-05-05T13:19:48.000000+0000,2025-05-05T13:19:57.000000+0000,2025-05-05T13:19:48.000000+0000,2025-05-05T13:19:57.000000+0000,47978,47988,47997,10,9,1307,1307
20250505,455,68655999,30600,2025-05-05T08:30:00.000000,72,0,6165,53,y3322,3322,2025-05-05T13:19:57.000000+0000,2025-05-05T13:20:44.000000+0000,,,,,,,,68655999,true,L455-159,BUS22025-hbl25011-Weekday-02,455-7-0,1,Outbound,Salem Depot,71,30600,2025-05-05T08:30:00.000000,Loring Ave @ Grant Rd,0,0,0,2025-05-05T13:19:57.000000+0000,2025-05-05T13:20:56.000000+0000,2025-05-05T13:20:44.000000+0000,2025-05-05T13:20:56.000000+0000,2025-05-05T13:20:44.000000+0000,2025-05-05T13:20:56.000000+0000,47997,48044,48056,47,12,1271,1271
20250505,455,68655999,30600,2025-05-05T08:30:00.000000,72,0,6166,54,y3322,3322,2025-05-05T13:20:56.000000+0000,,,,,,,,,68655999,true,L455-159,BUS22025-hbl25011-Weekday-02,455-7-0,1,Outbound,Salem Depot,71,30600,2025-05-05T08:30:00.000000,Loring Ave @ Monroe Rd,0,0,0,2025-05-05T13:20:56.000000+0000,,,,,,48056,,,,,,
20250505,455,68655999,30600,2025-05-05T08:30:00.000000,72,0,6167,55,y3322,3322,,2025-05-05T13:21:04.000000+0000,,,,,,,,68655999,true,L455-159,BUS22025-hbl25011-Weekday-02,455-7-0,1,Outbound,Salem Depot,71,30600,2025-05-05T08:30:00.000000,Loring Ave @ Sumner Rd,0,0,0,2025-05-05T13:21:04.000000+0000,2025-05-05T13:21:14.000000+0000,2025-05-05T13:21:04.000000+0000,2025-05-05T13:21:14.000000+0000,2025-05-05T13:21:04.000000+0000,2025-05-05T13:21:14.000000+0000,,48064,48074,,10,1194,1194
20250505,455,68655999,30600,2025-05-05T08:30:00.000000,72,0,6168,56,y3322,3322,2025-05-05T13:21:14.000000+0000,2025-05-05T13:21:26.000000+0000,,,,,,,,68655999,true,L455-159,BUS22025-hbl25011-Weekday-02,455-7-0,1,Outbound,Salem Depot,71,30600,2025-05-05T08:30:00.000000,Loring Ave opp Jefferson Ave,0,0,0,2025-05-05T13:21:14.000000+0000,2025-05-05T13:21:37.000000+0000,2025-05-05T13:21:26.000000+0000,2025-05-05T13:21:37.000000+0000,2025-05-05T13:21:26.000000+0000,2025-05-05T13:21:37.000000+0000,48074,48086,48097,12,11,1200,1200
20250505,455,68655999,30600,2025-05-05T08:30:00.000000,72,0,6169,57,y3322,3322,2025-05-05T13:21:37.000000+0000,2025-05-05T13:21:48.000000+0000,,,,,,,,68655999,true,L455-159,BUS22025-hbl25011-Weekday-02,455-7-0,1,Outbound,Salem Depot,71,30600,2025-05-05T08:30:00.000000,Loring Ave @ Raymond Rd,0,0,0,2025-05-05T13:21:37.000000+0000,2025-05-05T13:21:57.000000+0000,2025-05-05T13:21:48.000000+0000,2025-05-05T13:21:57.000000+0000,2025-05-05T13:21:48.000000+0000,2025-05-05T13:21:57.000000+0000,48097,48108,48117,11,9,1117,1117
20250505,455,68655999,30600,2025-05-05T08:30:00.000000,72,0,6170,58,y3322,3322,2025-05-05T13:21:57.000000+0000,2025-05-05T13:22:09.000000+0000,,,,,,,,68655999,true,L455-159,BUS22025-hbl25011-Weekday-02,455-7-0,1,Outbound,Salem Depot,71,30600,2025-05-05T08:30:00.000000,Loring Ave @ Rainbow Terr,0,0,0,2025-05-05T13:21:57.000000+0000,2025-05-05T13:22:12.000000+0000,2025-05-05T13:22:09.000000+0000,2025-05-05T13:22:12.000000+0000,2025-05-05T13:22:09.000000+0000,2025-05-05T13:22:12.000000+0000,48117,48129,48132,12,3,1113,1113
20250505,455,68655999,30600,2025-05-05T08:30:00.000000,72,0,16170,59,y3322,3322,2025-05-05T13:22:12.000000+0000,2025-05-05T13:22:27.000000+0000,,,,,,,,68655999,true,L455-159,BUS22025-hbl25011-Weekday-02,455-7-0,1,Outbound,Salem Depot,71,30600,2025-05-05T08:30:00.000000,Loring Ave @ Salem State University,0,0,0,2025-05-05T13:22:12.000000+0000,2025-05-05T13:22:58.000000+0000,2025-05-05T13:22:27.000000+0000,2025-05-05T13:22:58.000000+0000,2025-05-05T13:22:27.000000+0000,2025-05-05T13:22:58.000000+0000,48132,48147,48178,15,31,1114,1114
20250505,455,68655999,30600,2025-05-05T08:30:00.000000,72,0,6171,60,y3322,3322,2025-05-05T13:22:58.000000+0000,2025-05-05T13:23:09.000000+0000,,,,,,,,68655999,true,L455-159,BUS22025-hbl25011-Weekday-02,455-7-0,1,Outbound,Salem Depot,71,30600,2025-05-05T08:30:00.000000,Opp 352 Lafayette St,0,0,0,2025-05-05T13:22:58.000000+0000,,2025-05-05T13:23:09.000000+0000,,2025-05-05T13:23:09.000000+0000,,48178,48189,,11,,1056,1056
20250505,455,68655999,30600,2025-05-05T08:30:00.000000,72,0,6173,61,y3322,3322,,2025-05-05T13:23:25.000000+0000,,,,,,,,68655999,true,L455-159,BUS22025-hbl25011-Weekday-02,455-7-0,1,Outbound,Salem Depot,71,30600,2025-05-05T08:30:00.000000,Lafayette St @ Clifton Ave,0,0,0,2025-05-05T13:23:25.000000+0000,2025-05-05T13:23:43.000000+0000,2025-05-05T13:23:25.000000+0000,2025-05-05T13:23:43.000000+0000,2025-05-05T13:23:25.000000+0000,2025-05-05T13:23:43.000000+0000,,48205,48223,,18,1087,1087
20250505,455,68655999,30600,2025-05-05T08:30:00.000000,72,0,6174,62,y3322,3322,2025-05-05T13:23:43.000000+0000,2025-05-05T13:23:46.000000+0000,,,,,,,,68655999,true,L455-159,BUS22025-hbl25011-Weekday-02,455-7-0,1,Outbound,Salem Depot,71,30600,2025-05-05T08:30:00.000000,Lafayette St @ Ocean Ave,0,0,0,2025-05-05T13:23:43.000000+0000,,2025-05-05T13:23:46.000000+0000,,2025-05-05T13:23:46.000000+0000,,48223,48226,,3,,1076,1076
20250505,455,68655999,30600,2025-05-05T08:30:00.000000,72,0,6175,63,y3322,3322,,2025-05-05T13:23:58.000000+0000,,,,,,,,68655999,true,L455-159,BUS22025-hbl25011-Weekday-02,455-7-0,1,Outbound,Salem Depot,71,30600,2025-05-05T08:30:00.000000,Lafayette St @ Willow Ave,0,0,0,2025-05-05T13:23:58.000000+0000,,2025-05-05T13:23:58.000000+0000,,2025-05-05T13:23:58.000000+0000,,,48238,,,,1041,1041
20250505,455,68655999,30600,2025-05-05T08:30:00.000000,72,0,6176,64,y3322,3322,,2025-05-05T13:24:01.000000+0000,,,,,,,,68655999,true,L455-159,BUS22025-hbl25011-Weekday-02,455-7-0,1,Outbound,Salem Depot,71,30600,2025-05-05T08:30:00.000000,Lafayette St @ Leach St,0,0,0,2025-05-05T13:24:01.000000+0000,2025-05-05T13:24:13.000000+0000,2025-05-05T13:24:01.000000+0000,2025-05-05T13:24:13.000000+0000,2025-05-05T13:24:01.000000+0000,2025-05-05T13:24:13.000000+0000,,48241,48253,,12,1044,1044
20250505,455,68655999,30600,2025-05-05T08:30:00.000000,72,0,6177,65,y3322,3322,2025-05-05T13:24:13.000000+0000,2025-05-05T13:24:22.000000+0000,,,,,,,,68655999,true,L455-159,BUS22025-hbl25011-Weekday-02,455-7-0,1,Outbound,Salem Depot,71,30600,2025-05-05T08:30:00.000000,Lafayette St @ Saltonstall Pkwy,0,0,0,2025-05-05T13:24:13.000000+0000,,2025-05-05T13:24:22.000000+0000,,2025-05-05T13:24:22.000000+0000,,48253,48262,,9,,1029,1029
20250505,455,68655999,30600,2025-05-05T08:30:00.000000,72,0,16177,66,y3322,3322,,2025-05-05T13:24:34.000000+0000,,,,,,,,68655999,true,L455-159,BUS22025-hbl25011-Weekday-02,455-7-0,1,Outbound,Salem Depot,71,30600,2025-05-05T08:30:00.000000,Lafayette @ Leavitt St,0,0,0,2025-05-05T13:24:34.000000+0000,,2025-05-05T13:24:34.000000+0000,,2025-05-05T13:24:34.000000+0000,,,48274,,,,1038,1038
20250505,455,68655999,30600,2025-05-05T08:30:00.000000,72,0,6178,67,y3322,3322,,2025-05-05T13:24:43.000000+0000,,,,,,,,68655999,true,L455-159,BUS22025-hbl25011-Weekday-02,455-7-0,1,Outbound,Salem Depot,71,30600,2025-05-05T08:30:00.000000,Lafayette St @ Palmer St,0,0,0,2025-05-05T13:24:43.000000+0000,2025-05-05T13:24:54.000000+0000,2025-05-05T13:24:43.000000+0000,2025-05-05T13:24:54.000000+0000,2025-05-05T13:24:43.000000+0000,2025-05-05T13:24:54.000000+0000,,48283,48294,,11,1043,1043
20250505,455,68655999,30600,2025-05-05T08:30:00.000000,72,0,6180,68,y3322,3322,2025-05-05T13:24:54.000000+0000,2025-05-05T13:25:12.000000+0000,,,,,,,,68655999,true,L455-159,BUS22025-hbl25011-Weekday-02,455-7-0,1,Outbound,Salem Depot,71,30600,2025-05-05T08:30:00.000000,Lafayette St @ Harbor St,0,0,0,2025-05-05T13:24:54.000000+0000,2025-05-05T13:25:44.000000+0000,2025-05-05T13:25:12.000000+0000,2025-05-05T13:25:44.000000+0000,2025-05-05T13:25:12.000000+0000,2025-05-05T13:25:44.000000+0000,48294,48312,48344,18,32,1051,1051
20250505,455,68655999,30600,2025-05-05T08:30:00.000000,72,0,6181,69,y3322,3322,2025-05-05T13:25:44.000000+0000,2025-05-05T13:26:39.000000+0000,69,2025-05-05T13:27:00.000000+0000,2025-05-05T13:26:22.000000+0000,2025-05-05T13:27:06.000000+0000,34020,33982,34026,68655999,true,L455-159,BUS22025-hbl25011-Weekday-02,455-7-0,1,Outbound,Salem Depot,71,30600,2025-05-05T08:30:00.000000,New Derby St @ Klopp Alley,0,0,0,2025-05-05T13:25:44.000000+0000,2025-05-05T13:27:12.000000+0000,2025-05-05T13:26:22.000000+0000,2025-05-05T13:27:06.000000+0000,2025-05-05T13:26:22.000000+0000,2025-05-05T13:27:06.000000+0000,48344,48382,48426,38,44,999,999
20250505,455,68655999,30600,2025-05-05T08:30:00.000000,72,0,4563,70,y3322,3322,2025-05-05T13:27:12.000000+0000,2025-05-05T13:28:18.000000+0000,,,,,,,,68655999,true,L455-159,BUS22025-hbl25011-Weekday-02,455-7-0,1,Outbound,Salem Depot,71,30600,2025-05-05T08:30:00.000000,Washington St @ Church St,0,0,0,2025-05-05T13:27:12.000000+0000,2025-05-05T13:28:46.000000+0000,2025-05-05T13:28:18.000000+0000,2025-05-05T13:28:46.000000+0000,2025-05-05T13:28:18.000000+0000,2025-05-05T13:28:46.000000+0000,48432,48498,48526,66,28,998,998
20250505,455,68655999,30600,2025-05-05T08:30:00.000000,72,0,37150,71,y3322,3322,2025-05-05T13:28:46.000000+0000,,71,2025-05-05T13:32:00.000000+0000,2025-05-05T13:30:18.000000+0000,2025-05-05T13:30:18.000000+0000,34320,34218,34218,68655999,true,L455-159,BUS22025-hbl25011-Weekday-02,455-7-0,1,Outbound,Salem Depot,71,30600,2025-05-05T08:30:00.000000,Salem,0,0,0,2025-05-05T13:28:46.000000+0000,,2025-05-05T13:30:18.000000+0000,2025-05-05T13:30:18.000000+0000,2025-05-05T13:30:18.000000+0000,2025-05-05T13:30:18.000000+0000,48526,48618,48618,92,0,1000,1000
20250505,455,68655999,30600,2025-05-05T08:30:00.000000,72,0,15799,1,y3328,3328,,2025-05-05T12:29:33.000000+0000,,,,,,,,68655999,true,L455-159,BUS22025-hbl25011-Weekday-02,455-7-0,1,Outbound,Salem Depot,71,30600,2025-05-05T08:30:00.000000,Wonderland,,0,0,2025-05-05T12:29:33.000000+0000,,2025-05-05T12:29:33.000000+0000,,2025-05-05T12:29:33.000000+0000,,,44973,,,,1513,1513
